{"type": "FeatureCollection", "features": [
{"type": "Feature", "geometry": {"type": "Point", "coordinates": [120.633448, 31.322469]}, "properties": {"id": 1, "name": "\u4e1c\u56ed", "capacity": 20, "surrounding": "\u5546\u52a1\u4f4f\u5b85", "district": "\u59d1\u82cf\u533a", "township": "\u5e73\u6c5f\u8857\u9053", "address": "\u5317\u4ed3\u8857 \u767d\u5854\u4e1c\u8def\u4ea4\u53c9\u53e3"}}
,{"type": "Feature", "geometry": {"type": "Point", "coordinates": [120.622415, 31.324505]}, "properties": {"id": 2, "name": "\u897f\u5317\u8857\u53e3", "capacity": 20, "surrounding": "\u98ce\u666f\u540d\u80dc", "district": "\u59d1\u82cf\u533a", "township": "\u89c2\u524d\u8857\u9053", "address": "\u6731\u9e3f\u5174\u5364\u83dc\u9986\u897f\u4fa7"}}
,{"type": "Feature", "geometry": {"type": "Point", "coordinates": [120.610339, 31.329089]}, "properties": {"id": 3, "name": "\u5e73\u56db\u8def", "capacity": 20, "surrounding": "\u4f4f\u5bbf\u670d\u52a1", "district": "\u59d1\u82cf\u533a", "township": "\u6843\u82b1\u575e\u8857\u9053", "address": "\u5e73\u56db\u8def\u53e4\u57ce\u5899\u65c1"}}
,{"type": "Feature", "geometry": {"type": "Point", "coordinates": [120.640895, 31.301449]}, "properties": {"id": 4, "name": "\u8451\u95e8\u8def\u53e3", "capacity": 30, "surrounding": "\u533b\u7597\u4fdd\u5065\u670d\u52a1", "district": "\u59d1\u82cf\u533a", "township": "\u8451\u95e8\u8857\u9053", "address": "\u83ab\u90aa\u8def\u5f90\u516c\u6865\u5317\u4fa7"}}
,{"type": "Feature", "geometry": {"type": "Point", "coordinates": [120.626322, 31.310907]}, "properties": {"id": 6, "name": "\u548c\u57fa\u5e7f\u573a", "capacity": 38, "surrounding": "\u79d1\u6559\u6587\u5316\u670d\u52a1", "district": "\u59d1\u82cf\u533a", "township": "\u5e73\u6c5f\u8857\u9053", "address": "\u5e72\u5c06\u4e1c\u8def\u548c\u57fa\u5e7f\u573a\u524d"}}
,{"type": "Feature", "geometry": {"type": "Point", "coordinates": [120.620381, 31.319983]}, "properties": {"id": 7, "name": "\u4e2d\u56fd\u90ae\u653f", "capacity": 20, "surrounding": "\u5546\u52a1\u4f4f\u5b85", "district": "\u59d1\u82cf\u533a", "township": "\u89c2\u524d\u8857\u9053", "address": "\u767d\u5854\u897f\u8def\u90ae\u653f\u50a8\u84c4\u6240\u95e8\u53e3\u767d\u5854\u897f\u8def\u90ae\u653f\u50a8\u84c4\u6240\u95e8\u53e3"}}
,{"type": "Feature", "geometry": {"type": "Point", "coordinates": [120.625278, 31.312742]}, "properties": {"id": 8, "name": "\u89c2\u524d\u8857\uff08\u4e1c\uff09", "capacity": 30, "surrounding": "\u79d1\u6559\u6587\u5316\u670d\u52a1", "district": "\u59d1\u82cf\u533a", "township": "\u89c2\u524d\u8857\u9053", "address": "\u5927\uff1a\u4e34\u987f\u8def\u918b\u574a\u6865\u89c2\u524d\u8857\u4e1c\u4fa7\u516c\u4ea4\u7ad9\u70b9\u540e\u9762"}}
,{"type": "Feature", "geometry": {"type": "Point", "coordinates": [120.605712, 31.332984]}, "properties": {"id": 9, "name": "\u706b\u8f66\u7ad9\u957f\u9014\u697c", "capacity": 20, "surrounding": "\u4ea4\u901a\u8bbe\u65bd\u670d\u52a1", "district": "\u59d1\u82cf\u533a", "township": "\u82cf\u9526\u8857\u9053", "address": "\u82cf\u7ad9\u8def\u706b\u8f66\u7ad9\u957f\u9014\u697c"}}
,{"type": "Feature", "geometry": {"type": "Point", "coordinates": [120.57771, 31.29873]}, "properties": {"id": 10, "name": "\u4e09\u9999\u8def\u5bb6\u4e50\u798f", "capacity": 20, "surrounding": "\u533b\u7597\u4fdd\u5065\u670d\u52a1", "district": "\u59d1\u82cf\u533a", "township": "\u91d1\u960a\u8857\u9053", "address": "\u4e09\u9999\u8def\u5bb6\u4e50\u798f\u516c\u4ea4\u7ad9\u53f0\u65c1"}}
,{"type": "Feature", "geometry": {"type": "Point", "coordinates": [120.588445, 31.297861]}, "properties": {"id": 11, "name": "\u65b0\u6ca7\u82b1\u56ed", "capacity": 18, "surrounding": "\u79d1\u6559\u6587\u5316\u670d\u52a1", "district": "\u59d1\u82cf\u533a", "township": "\u80e5\u6c5f\u8857\u9053", "address": "\u6850\u6cfe\u5357\u8def\u5434\u5730\u4eba\u5bb6\u5bf9\u9762"}}
,{"type": "Feature", "geometry": {"type": "Point", "coordinates": [120.615821, 31.280847]}, "properties": {"id": 12, "name": "\u9f99\u6e2f\u82b1\u82d1", "capacity": 20, "surrounding": "\u5546\u52a1\u4f4f\u5b85", "district": "\u59d1\u82cf\u533a", "township": "\u5434\u95e8\u6865\u8857\u9053", "address": "\u5357\u73af\u8def\u9f99\u6e2f\u82b1\u82d1\u4e1c\u4fa7"}}
,{"type": "Feature", "geometry": {"type": "Point", "coordinates": [120.628154, 31.30853]}, "properties": {"id": 13, "name": "\u5b9a\u6167\u5bfa\u5df7", "capacity": 14, "surrounding": "\u9910\u996e\u670d\u52a1", "district": "\u59d1\u82cf\u533a", "township": "\u53cc\u5854\u8857\u9053", "address": "\u51e4\u51f0\u8857276\u53f7"}}
,{"type": "Feature", "geometry": {"type": "Point", "coordinates": [120.603777, 31.283476]}, "properties": {"id": 14, "name": "\u6ca7\u6d6a\u533a\u5e02\u6c11\u4e2d\u5fc3", "capacity": 18, "surrounding": "\u653f\u5e9c\u673a\u6784\u53ca\u793e\u4f1a\u56e2\u4f53", "district": "\u59d1\u82cf\u533a", "township": "\u5434\u95e8\u6865\u8857\u9053", "address": "\u76d1\u7ba1\uff1a\u89e3\u653e\u4e1c\u8def\u5357\u957f\u5434\u8def\u897f"}}
,{"type": "Feature", "geometry": {"type": "Point", "coordinates": [120.581896, 31.299481]}, "properties": {"id": 15, "name": "\u5e02\u653f\u5e9c", "capacity": 30, "surrounding": "\u653f\u5e9c\u673a\u6784\u53ca\u793e\u4f1a\u56e2\u4f53", "district": "\u59d1\u82cf\u533a", "township": "\u91d1\u960a\u8857\u9053", "address": "\u653f\u5e9c\uff1a\u4e09\u9999\u8def\u5e02\u653f\u5e9c\u5927\u95e8\u65c1"}}
,{"type": "Feature", "geometry": {"type": "Point", "coordinates": [120.605497, 31.302048]}, "properties": {"id": 16, "name": "\u4e09\u9999\u8def\u5de5\u5546\u94f6\u884c", "capacity": 20, "surrounding": "\u5546\u52a1\u4f4f\u5b85", "district": "\u59d1\u82cf\u533a", "township": "\u80e5\u6c5f\u8857\u9053", "address": "\u4e09\u9999\u8def\u5de5\u5546\u94f6\u884c\u65c1"}}
,{"type": "Feature", "geometry": {"type": "Point", "coordinates": [120.609891, 31.302561]}, "properties": {"id": 18, "name": "\u5e02\u653f\u8bbe\u65bd\u5904", "capacity": 20, "surrounding": "\u79d1\u6559\u6587\u5316\u670d\u52a1", "district": "\u59d1\u82cf\u533a", "township": "\u6ca7\u6d6a\u8857\u9053", "address": "\u9053\u524d\u8857\u5e02\u653f\u8bbe\u65bd\u5904\u4e1c\u4fa7"}}
,{"type": "Feature", "geometry": {"type": "Point", "coordinates": [120.592763, 31.300531]}, "properties": {"id": 19, "name": "\u884c\u653f\u670d\u52a1\u4e2d\u5fc3", "capacity": 20, "surrounding": "\u79d1\u6559\u6587\u5316\u670d\u52a1", "district": "\u59d1\u82cf\u533a", "township": "\u80e5\u6c5f\u8857\u9053", "address": "\u76d1\u7ba1\uff1a\u4e09\u9999\u8def\u884c\u653f\u670d\u52a1\u4e2d\u5fc3\u95e8\u53e3"}}
,{"type": "Feature", "geometry": {"type": "Point", "coordinates": [120.621571, 31.303475]}, "properties": {"id": 20, "name": "\u6c5f\u82cf\u94f6\u884c", "capacity": 20, "surrounding": "\u79d1\u6559\u6587\u5316\u670d\u52a1", "district": "\u59d1\u82cf\u533a", "township": "\u53cc\u5854\u8857\u9053", "address": "\u5341\u6893\u8857\u6c5f\u82cf\u94f6\u884c\u4e1c\u4fa7"}}
,{"type": "Feature", "geometry": {"type": "Point", "coordinates": [120.624123, 31.303657]}, "properties": {"id": 21, "name": "\u82cf\u5dde\u65e5\u62a5\u793e", "capacity": 16, "surrounding": "\u79d1\u6559\u6587\u5316\u670d\u52a1", "district": "\u59d1\u82cf\u533a", "township": "\u53cc\u5854\u8857\u9053", "address": "\u5341\u6893\u8857\u53cc\u5854\u8857\u9053\u95e8\u53e3"}}
,{"type": "Feature", "geometry": {"type": "Point", "coordinates": [120.59896, 31.301602]}, "properties": {"id": 22, "name": "\u73af\u5883\u76d1\u6d4b\u4e2d\u5fc3\u7ad9", "capacity": 20, "surrounding": "\u653f\u5e9c\u673a\u6784\u53ca\u793e\u4f1a\u56e2\u4f53", "district": "\u59d1\u82cf\u533a", "township": "\u80e5\u6c5f\u8857\u9053", "address": "\u4e09\u9999\u8def\u5e02\u73af\u5883\u76d1\u6d4b\u4e2d\u5fc3"}}
,{"type": "Feature", "geometry": {"type": "Point", "coordinates": [120.631487, 31.295389]}, "properties": {"id": 23, "name": "\u6052\u6da6\u5927\u53a6", "capacity": 20, "surrounding": "\u5546\u52a1\u4f4f\u5b85", "district": "\u59d1\u82cf\u533a", "township": "\u6ca7\u6d6a\u8857\u9053", "address": "\u7af9\u8f89\u8def\u4e0e\u5357\u56ed\u5317\u8def\u4ea4\u53c9\u53e3"}}
,{"type": "Feature", "geometry": {"type": "Point", "coordinates": [120.623885, 31.32054]}, "properties": {"id": 24, "name": "\u767d\u5854\u5b50\u6865", "capacity": 14, "surrounding": "\u9910\u996e\u670d\u52a1", "district": "\u59d1\u82cf\u533a", "township": "\u89c2\u524d\u8857\u9053", "address": "\u5e02\u7acb\u533b\u9662\u4e1c\u533a"}}
,{"type": "Feature", "geometry": {"type": "Point", "coordinates": [120.577952, 31.287815]}, "properties": {"id": 25, "name": "\u5e02\u5bb9\u5e02\u653f\u7ba1\u7406\u5c40", "capacity": 20, "surrounding": "\u5546\u52a1\u4f4f\u5b85", "district": "\u59d1\u82cf\u533a", "township": "\u53cb\u65b0\u8857\u9053", "address": "\u76d1\u7ba1\uff1a\u897f\u73af\u8def\u5e02\u5bb9\u5e02\u653f\u5c40\u5357\u5927\u95e8"}}
,{"type": "Feature", "geometry": {"type": "Point", "coordinates": [120.59959, 31.31872]}, "properties": {"id": 26, "name": "\u5c71\u5858\u8857\u6e38\u5ba2\u4e2d\u5fc3", "capacity": 20, "surrounding": "\u98ce\u666f\u540d\u80dc", "district": "\u59d1\u82cf\u533a", "township": "\u864e\u4e18\u8857\u9053", "address": "\u5c71\u5858\u8857\u6e38\u5ba2\u4e2d\u5fc3\u95e8\u53e3"}}
,{"type": "Feature", "geometry": {"type": "Point", "coordinates": [120.596669, 31.320379]}, "properties": {"id": 27, "name": "\u65b0\u6c11\u6865\u5357", "capacity": 20, "surrounding": "\u98ce\u666f\u540d\u80dc", "district": "\u59d1\u82cf\u533a", "township": "\u864e\u4e18\u8857\u9053", "address": "\u5e7f\u6d4e\u8def\u5c71\u5858\u666f\u533a\u552e\u7968\u5904"}}
,{"type": "Feature", "geometry": {"type": "Point", "coordinates": [120.633124, 31.301049]}, "properties": {"id": 28, "name": "\u4e1c\u5434\u996d\u5e97", "capacity": 24, "surrounding": "\u79d1\u6559\u6587\u5316\u670d\u52a1", "district": "\u59d1\u82cf\u533a", "township": "\u53cc\u5854\u8857\u9053", "address": "\u5341\u5168\u8857\u539f\u77f3\u97f3\u4e50\u9152\u5427\u95e8\u53e3"}}
,{"type": "Feature", "geometry": {"type": "Point", "coordinates": [120.627203, 31.304268]}, "properties": {"id": 29, "name": "\u6ca7\u6d6a\u533a\u653f\u5e9c", "capacity": 18, "surrounding": "\u5546\u52a1\u4f4f\u5b85", "district": "\u59d1\u82cf\u533a", "township": "\u53cc\u5854\u8857\u9053", "address": "\u5341\u6893\u8857\u6ca7\u6d6a\u533a\u653f\u5e9c\u95e8\u53e3"}}
,{"type": "Feature", "geometry": {"type": "Point", "coordinates": [120.627707, 31.321024]}, "properties": {"id": 30, "name": "\u5e73\u6c5f\u8def\u53e3", "capacity": 20, "surrounding": "\u98ce\u666f\u540d\u80dc", "district": "\u59d1\u82cf\u533a", "township": "\u5e73\u6c5f\u8857\u9053", "address": "\u5927\uff1a\u767d\u5854\u4e1c\u8def\u5de5\u5546\u94f6\u884c\u95e8\u53e3"}}
,{"type": "Feature", "geometry": {"type": "Point", "coordinates": [120.587773, 31.316765]}, "properties": {"id": 31, "name": "\u7559\u56ed", "capacity": 20, "surrounding": "\u98ce\u666f\u540d\u80dc", "district": "\u59d1\u82cf\u533a", "township": "\u7559\u56ed\u8857\u9053", "address": "\u7559\u56ed\u666f\u70b9\u897f\u4fa7\uff08\u7559\u56ed\u516c\u4ea4\u7ad9\u9644\u8fd1\uff09"}}
,{"type": "Feature", "geometry": {"type": "Point", "coordinates": [120.572597, 31.317866]}, "properties": {"id": 32, "name": "\u502a\u5bb6\u82d1", "capacity": 18, "surrounding": "\u5546\u52a1\u4f4f\u5b85", "district": "\u59d1\u82cf\u533a", "township": "\u7559\u56ed\u8857\u9053", "address": "\u897f\u56ed\u8def\u897f"}}
,{"type": "Feature", "geometry": {"type": "Point", "coordinates": [120.570306, 31.3193]}, "properties": {"id": 33, "name": "\u65b0\u5e84\u65b0\u6751", "capacity": 20, "surrounding": "\u5546\u52a1\u4f4f\u5b85", "district": "\u59d1\u82cf\u533a", "township": "\u7559\u56ed\u8857\u9053", "address": "\u897f\u73af\u8def\u65b0\u5e84\u65b0\u6751\u897f\u51fa\u53e3"}}
,{"type": "Feature", "geometry": {"type": "Point", "coordinates": [120.569195, 31.32313]}, "properties": {"id": 34, "name": "\u65b0\u5e84\u516c\u4ea4\u9996\u672b\u7ad9", "capacity": 20, "surrounding": "\u5546\u52a1\u4f4f\u5b85", "district": "\u59d1\u82cf\u533a", "township": "\u7559\u56ed\u8857\u9053", "address": "\u897f\u73af\u8def\u5317\u65b0\u5e84\u516c\u4ea4\u9996\u672b\u7ad9\u540d\u521b\u56ed"}}
,{"type": "Feature", "geometry": {"type": "Point", "coordinates": [120.566127, 31.313076]}, "properties": {"id": 35, "name": "\u5bd2\u5c71\u5bfa", "capacity": 20, "surrounding": "\u98ce\u666f\u540d\u80dc", "district": "\u59d1\u82cf\u533a", "township": "\u91d1\u960a\u8857\u9053", "address": "\u5927\uff1a\u67ab\u6865\u8def\u5317\u4fa7\uff0c\u5bd2\u5c71\u5bfa\u4e1c"}}
,{"type": "Feature", "geometry": {"type": "Point", "coordinates": [120.574262, 31.309684]}, "properties": {"id": 36, "name": "\u4e09\u5143\u4e8c\u6751", "capacity": 20, "surrounding": "\u5546\u52a1\u4f4f\u5b85", "district": "\u59d1\u82cf\u533a", "township": "\u91d1\u960a\u8857\u9053", "address": "\u91d1\u95e8\u8def\u4e09\u5143\u4e8c\u6751\u5317\u95e8"}}
,{"type": "Feature", "geometry": {"type": "Point", "coordinates": [120.63321, 31.288602]}, "properties": {"id": 37, "name": "\u5357\u56ed\u6865\u5357\u580d", "capacity": 20, "surrounding": "\u5546\u52a1\u4f4f\u5b85", "district": "\u59d1\u82cf\u533a", "township": "\u8451\u95e8\u8857\u9053", "address": "\u5357\u56ed\u6865\u8f6c\u5357\u95e8\u8def\u62d0\u89d2\u5904"}}
,{"type": "Feature", "geometry": {"type": "Point", "coordinates": [120.633242, 31.285955]}, "properties": {"id": 38, "name": "25\u53f7\u5c0f\u533a", "capacity": 20, "surrounding": "\u5546\u52a1\u4f4f\u5b85", "district": "\u59d1\u82cf\u533a", "township": "\u5434\u95e8\u6865\u8857\u9053", "address": "\u5357\u56ed\u5357\u8def\u897f\u5357\u73af\u5927\u8857\u5317"}}
,{"type": "Feature", "geometry": {"type": "Point", "coordinates": [120.630243, 31.282339]}, "properties": {"id": 40, "name": "\u5357\u534e\u516c\u5bd3", "capacity": 20, "surrounding": "\u5546\u52a1\u4f4f\u5b85", "district": "\u59d1\u82cf\u533a", "township": "\u5434\u95e8\u6865\u8857\u9053", "address": "\u5357\u73af\u65b0\u6751\u7ad9\u53f0\u65c1"}}
,{"type": "Feature", "geometry": {"type": "Point", "coordinates": [120.602512, 31.268454]}, "properties": {"id": 41, "name": "\u535a\u96c5\u82d1", "capacity": 26, "surrounding": "\u79d1\u6559\u6587\u5316\u670d\u52a1", "district": "\u59d1\u82cf\u533a", "township": "\u53cb\u65b0\u8857\u9053", "address": "\u5b9d\u5e26\u897f\u8def\u535a\u96c5\u82d1\u5357"}}
,{"type": "Feature", "geometry": {"type": "Point", "coordinates": [120.607637, 31.284715]}, "properties": {"id": 42, "name": "\u5927\u6da6\u53d1", "capacity": 20, "surrounding": "\u5546\u52a1\u4f4f\u5b85", "district": "\u59d1\u82cf\u533a", "township": "\u5434\u95e8\u6865\u8857\u9053", "address": "\u6613\u6295\u8bc9\uff1a\u89e3\u653e\u4e1c\u8def\u76d8\u80e5\u8def\u4ea4\u53c9\u53e3\u82cf\u798f\u5927\u6da6\u53d1"}}
,{"type": "Feature", "geometry": {"type": "Point", "coordinates": [120.608327, 31.290605]}, "properties": {"id": 43, "name": "\u76d8\u666f\u82d1", "capacity": 20, "surrounding": "\u5546\u52a1\u4f4f\u5b85", "district": "\u59d1\u82cf\u533a", "township": "\u6ca7\u6d6a\u8857\u9053", "address": "\u76d8\u80e5\u8def\u76d8\u666f\u82d1\u5c0f\u533a\u95e8\u53e3"}}
,{"type": "Feature", "geometry": {"type": "Point", "coordinates": [120.602091, 31.306431]}, "properties": {"id": 44, "name": "\u960a\u80e5\u8def\u4f9b\u7535\u516c\u53f8", "capacity": 20, "surrounding": "\u79d1\u6559\u6587\u5316\u670d\u52a1", "district": "\u59d1\u82cf\u533a", "township": "\u77f3\u8def\u8857\u9053", "address": "\u960a\u80e5\u8def\u5e72\u5c06\u897f\u8def\u4ea4\u53c9"}}
,{"type": "Feature", "geometry": {"type": "Point", "coordinates": [120.599452, 31.31272]}, "properties": {"id": 45, "name": "\u77f3\u8def", "capacity": 16, "surrounding": "\u79d1\u6559\u6587\u5316\u670d\u52a1", "district": "\u59d1\u82cf\u533a", "township": "\u77f3\u8def\u8857\u9053", "address": "\u960a\u80e5\u8def\u7231\u6cb3\u6865\u7ad9"}}
,{"type": "Feature", "geometry": {"type": "Point", "coordinates": [120.606709, 31.311941]}, "properties": {"id": 46, "name": "\u9ec4\u9e42\u574a\u519c\u8d38\u5e02\u573a", "capacity": 16, "surrounding": "\u4f4f\u5bbf\u670d\u52a1", "district": "\u59d1\u82cf\u533a", "township": "\u6843\u82b1\u575e\u8857\u9053", "address": "\u6843\u82b1\u575e\u8857\u9053\u897f\u6c5f\u82b1\u56ed\u666f\u5b66\u5bbe\u9986(\u666f\u5fb7\u8def\u5e97)"}}
,{"type": "Feature", "geometry": {"type": "Point", "coordinates": [120.610037, 31.318482]}, "properties": {"id": 47, "name": "\u4e2d\u5e02\u6865", "capacity": 16, "surrounding": "\u79d1\u6559\u6587\u5316\u670d\u52a1", "district": "\u59d1\u82cf\u533a", "township": "\u6843\u82b1\u575e\u8857\u9053", "address": "\u5927\uff1a\u4e1c\u4e2d\u5e02\u4e0e\u4e2d\u8857\u8def\u4e2d\u5fc3\u8857\u4ea4\u53c9\u53e3"}}
,{"type": "Feature", "geometry": {"type": "Point", "coordinates": [120.602588, 31.291342]}, "properties": {"id": 49, "name": "\u91d1\u6865\u65b0\u6751", "capacity": 20, "surrounding": "\u5546\u52a1\u4f4f\u5b85", "district": "\u59d1\u82cf\u533a", "township": "\u80e5\u6c5f\u8857\u9053", "address": "\u80e5\u6c5f\u8def\u91d1\u6865\u65b0\u6751\u5bf9\u9762"}}
,{"type": "Feature", "geometry": {"type": "Point", "coordinates": [120.622773, 31.305456]}, "properties": {"id": 50, "name": "\u82cf\u5dde\u516c\u56ed", "capacity": 20, "surrounding": "\u653f\u5e9c\u673a\u6784\u53ca\u793e\u4f1a\u56e2\u4f53", "district": "\u59d1\u82cf\u533a", "township": "\u53cc\u5854\u8857\u9053", "address": "\u6c11\u6cbb\u8def\u5357\u4e94\u5345\u8def\u4e1c\u4ea4\u53c9\u53e3"}}
,{"type": "Feature", "geometry": {"type": "Point", "coordinates": [120.613127, 31.302937]}, "properties": {"id": 51, "name": "\u4f1a\u8bae\u4e2d\u5fc3", "capacity": 20, "surrounding": "\u79d1\u6559\u6587\u5316\u670d\u52a1", "district": "\u59d1\u82cf\u533a", "township": "\u6ca7\u6d6a\u8857\u9053", "address": "\u4f1a\u8bae\u4e2d\u5fc3\u5e7f\u573a\u9053\u524d\u8857\u82b1\u575b\u5185\u4fa7"}}
,{"type": "Feature", "geometry": {"type": "Point", "coordinates": [120.579896, 31.310031]}, "properties": {"id": 61, "name": "\u99a8\u9e3f\u82b1\u56ed", "capacity": 16, "surrounding": "\u5546\u52a1\u4f4f\u5b85", "district": "\u59d1\u82cf\u533a", "township": "\u91d1\u960a\u8857\u9053", "address": "\u91d1\u95e8\u8def\u99a8\u6cd3\u82b1\u56ed\u5927\u95e8\u4e1c\u4fa7"}}
,{"type": "Feature", "geometry": {"type": "Point", "coordinates": [120.595103, 31.311958]}, "properties": {"id": 62, "name": "\u65b0\u82cf\u5929\u5730", "capacity": 20, "surrounding": "\u9910\u996e\u670d\u52a1", "district": "\u59d1\u82cf\u533a", "township": "\u77f3\u8def\u8857\u9053", "address": "\u91d1\u95e8\u8def\u5e7f\u6d4e\u5357\u8def"}}
,{"type": "Feature", "geometry": {"type": "Point", "coordinates": [120.591629, 31.338959]}, "properties": {"id": 63, "name": "\u5929\u7b51\u5bb6\u56ed\u897f\u95e8", "capacity": 20, "surrounding": "\u5730\u540d\u5730\u5740\u4fe1\u606f", "district": "\u59d1\u82cf\u533a", "township": "\u57ce\u5317\u8857\u9053", "address": "\u6c5f\u661f\u8def\u5929\u7b51\u5bb6\u56ed\u897f\u95e8"}}
,{"type": "Feature", "geometry": {"type": "Point", "coordinates": [120.591634, 31.338047]}, "properties": {"id": 64, "name": "\u5927\u89c2\u540d\u56ed\u5317\u95e8", "capacity": 20, "surrounding": "\u79d1\u6559\u6587\u5316\u670d\u52a1", "district": "\u59d1\u82cf\u533a", "township": "\u57ce\u5317\u8857\u9053", "address": "\u5e73\u6cb3\u8def\u5927\u89c2\u540d\u56ed\u5317\u95e8"}}
,{"type": "Feature", "geometry": {"type": "Point", "coordinates": [120.591451, 31.344744]}, "properties": {"id": 65, "name": "\u5e73\u6c5f\u65b0\u57ce\u7ba1\u59d4\u4f1a", "capacity": 20, "surrounding": "\u79d1\u6559\u6587\u5316\u670d\u52a1", "district": "\u59d1\u82cf\u533a", "township": "\u57ce\u5317\u8857\u9053", "address": "\u653f\u5e9c\uff1a\u5e73\u6cf7\u8def\u4e0e\u6c5f\u661f\u8def\u4ea4\u53c9\u53e3\uff0c\u5e73\u6cf7\u8def\u5317\u4fa7"}}
,{"type": "Feature", "geometry": {"type": "Point", "coordinates": [120.607922, 31.334392]}, "properties": {"id": 66, "name": "\u706b\u8f66\u7ad9\u5317\u5e7f\u573a", "capacity": 20, "surrounding": "\u4ea4\u901a\u8bbe\u65bd\u670d\u52a1", "district": "\u59d1\u82cf\u533a", "township": "\u82cf\u9526\u8857\u9053", "address": "\u82cf\u7ad9\u8def"}}
,{"type": "Feature", "geometry": {"type": "Point", "coordinates": [120.6137, 31.339431]}, "properties": {"id": 67, "name": "\u5e73\u6c5f\u533a\u653f\u5e9c", "capacity": 20, "surrounding": "\u5546\u52a1\u4f4f\u5b85", "district": "\u59d1\u82cf\u533a", "township": "\u82cf\u9526\u8857\u9053", "address": "\u653f\u5e9c\uff1a\u6c5f\u4e7e\u8def\u897f\u4fa7\uff0c\u5e73\u6c5f\u533a\u653f\u5e9c\u95e8\u53e3"}}
,{"type": "Feature", "geometry": {"type": "Point", "coordinates": [120.615249, 31.331806]}, "properties": {"id": 68, "name": "\u6c7d\u8f66\u5317\u7ad9", "capacity": 40, "surrounding": "\u5546\u52a1\u4f4f\u5b85", "district": "\u59d1\u82cf\u533a", "township": "\u82cf\u9526\u8857\u9053", "address": "\u5927\uff1a\u897f\u6c47\u8def\u5317\u6d4b\uff0c\u6c5f\u4e7e\u8def\u4e1c\uff0c\u6c7d\u8f66\u5317\u7ad9\u897f"}}
,{"type": "Feature", "geometry": {"type": "Point", "coordinates": [120.64273, 31.323306]}, "properties": {"id": 69, "name": "\u65e5\u89c4\u8def\u5929\u6865\u53e3", "capacity": 20, "surrounding": "\u5546\u52a1\u4f4f\u5b85", "district": "\u59d1\u82cf\u533a", "township": "\u5a04\u95e8\u8857\u9053", "address": "\u4e1c\u73af\u8def\u65e5\u89c4\u8def\u53e3\u5929\u6865\u4e0b"}}
,{"type": "Feature", "geometry": {"type": "Point", "coordinates": [120.648002, 31.30514]}, "properties": {"id": 70, "name": "\u82cf\u5927\u6821\u533a\u4e1c\u5927\u95e8", "capacity": 30, "surrounding": "\u79d1\u6559\u6587\u5316\u670d\u52a1", "district": "\u59d1\u82cf\u533a", "township": "\u8451\u95e8\u8857\u9053", "address": "\u4e1c\u73af\u8def\u5b66\u6821\u5927\u95e8\u5357\u4fa7"}}
,{"type": "Feature", "geometry": {"type": "Point", "coordinates": [120.628445, 31.300233]}, "properties": {"id": 71, "name": "\u7f51\u5e08\u56ed", "capacity": 20, "surrounding": "\u79d1\u6559\u6587\u5316\u670d\u52a1", "district": "\u59d1\u82cf\u533a", "township": "\u53cc\u5854\u8857\u9053", "address": "\u53cc\u5854\u8857\u9053\u4e2d\u56fd\u5efa\u8bbe\u94f6\u884c(\u6ca7\u6d6a\u652f\u884c)"}}
,{"type": "Feature", "geometry": {"type": "Point", "coordinates": [120.598513, 31.297005]}, "properties": {"id": 72, "name": "\u7535\u529b\u57f9\u8bad\u4e2d\u5fc3", "capacity": 20, "surrounding": "\u5546\u52a1\u4f4f\u5b85", "district": "\u59d1\u82cf\u533a", "township": "\u80e5\u6c5f\u8857\u9053", "address": "\u52b3\u52a8\u8def\u7535\u529b\u57f9\u8bad\u4e2d\u5fc3"}}
,{"type": "Feature", "geometry": {"type": "Point", "coordinates": [120.591229, 31.311417]}, "properties": {"id": 73, "name": "\u6731\u5bb6\u5e84\u65b0\u6751", "capacity": 20, "surrounding": "\u5546\u52a1\u4f4f\u5b85", "district": "\u59d1\u82cf\u533a", "township": "\u77f3\u8def\u8857\u9053", "address": "\u67ab\u6865\u8def\u91d1\u95e8\u8def"}}
,{"type": "Feature", "geometry": {"type": "Point", "coordinates": [120.571524, 31.310272]}, "properties": {"id": 74, "name": "\u91d1\u960a\u533a\u5c11\u5e74\u5bab", "capacity": 20, "surrounding": "\u5546\u52a1\u4f4f\u5b85", "district": "\u59d1\u82cf\u533a", "township": "\u91d1\u960a\u8857\u9053", "address": "\u91d1\u95e8\u8def\u897f\u73af\u8def\u4ea4\u53c9\u53e3"}}
,{"type": "Feature", "geometry": {"type": "Point", "coordinates": [120.57408, 31.298659]}, "properties": {"id": 75, "name": "\u7ecf\u8d38\u5927\u53a6", "capacity": 40, "surrounding": "\u653f\u5e9c\u673a\u6784\u53ca\u793e\u4f1a\u56e2\u4f53", "district": "\u59d1\u82cf\u533a", "township": "\u91d1\u960a\u8857\u9053", "address": "\u897f\u73af\u8def\u4e09\u9999\u8def\u4ea4\u53c9\u53e3"}}
,{"type": "Feature", "geometry": {"type": "Point", "coordinates": [120.572862, 31.30339]}, "properties": {"id": 76, "name": "\u897f\u73af\u8def\u7ad94\u53f7\u51fa\u53e3", "capacity": 40, "surrounding": "\u79d1\u6559\u6587\u5316\u670d\u52a1", "district": "\u59d1\u82cf\u533a", "township": "\u91d1\u960a\u8857\u9053", "address": "\u76d1\u7ba1\uff1a\u897f\u73af\u8def\u897f\u5e72\u5c06\u8def\u5357\u8def\u53e31\u53f7\u7ebf4\u53f7\u51fa\u53e3"}}
,{"type": "Feature", "geometry": {"type": "Point", "coordinates": [120.574251, 31.303929]}, "properties": {"id": 77, "name": "\u897f\u73af\u8def\u7ad93\u53f7\u51fa\u53e3", "capacity": 40, "surrounding": "\u79d1\u6559\u6587\u5316\u670d\u52a1", "district": "\u59d1\u82cf\u533a", "township": "\u91d1\u960a\u8857\u9053", "address": "\u5e72\u5c06\u897f\u8def1\u53f7\u5730\u94c13\u53f7\u51fa\u53e3"}}
,{"type": "Feature", "geometry": {"type": "Point", "coordinates": [120.580156, 31.304378]}, "properties": {"id": 78, "name": "\u5e02\u884c\u653f\u4e2d\u5fc3\u5317\u95e8", "capacity": 20, "surrounding": "\u5546\u52a1\u4f4f\u5b85", "district": "\u59d1\u82cf\u533a", "township": "\u91d1\u960a\u8857\u9053", "address": "\u653f\u5e9c\uff1a\u5e72\u5c06\u897f\u8def\u5e02\u884c\u653f\u4e2d\u5fc3\u5317\u95e8"}}
,{"type": "Feature", "geometry": {"type": "Point", "coordinates": [120.583171, 31.30492]}, "properties": {"id": 79, "name": "\u82cf\u5dde\u5e7f\u64ad\u7535\u89c6\u5927\u5b66", "capacity": 20, "surrounding": "\u653f\u5e9c\u673a\u6784\u53ca\u793e\u4f1a\u56e2\u4f53", "district": "\u59d1\u82cf\u533a", "township": "\u91d1\u960a\u8857\u9053", "address": "\u5e72\u5c06\u897f\u8def\u5f00\u653e\u5927\u5b66\u5357\u4fa7\u516c\u4ea4\u7ad9\u9644\u8fd1"}}
,{"type": "Feature", "geometry": {"type": "Point", "coordinates": [120.586798, 31.305092]}, "properties": {"id": 80, "name": "\u6850\u6cfe\u5317\u8def\u7ad92\u53f7\u51fa", "capacity": 34, "surrounding": "\u653f\u5e9c\u673a\u6784\u53ca\u793e\u4f1a\u56e2\u4f53", "district": "\u59d1\u82cf\u533a", "township": "\u91d1\u960a\u8857\u9053", "address": "\u5e72\u5c06\u8def\u6850\u6cfe\u5317\u8def\u7ad92\u53f7\u51fa"}}
,{"type": "Feature", "geometry": {"type": "Point", "coordinates": [120.585182, 31.304893]}, "properties": {"id": 81, "name": "\u6850\u6cfe\u5317\u8def\u7ad91\u53f7\u51fa", "capacity": 36, "surrounding": "\u653f\u5e9c\u673a\u6784\u53ca\u793e\u4f1a\u56e2\u4f53", "district": "\u59d1\u82cf\u533a", "township": "\u91d1\u960a\u8857\u9053", "address": "\u5e72\u5c06\u897f\u8def\u6850\u6cfe\u5317\u8def\u7ad91\u53f7\u51fa"}}
,{"type": "Feature", "geometry": {"type": "Point", "coordinates": [120.588688, 31.305198]}, "properties": {"id": 82, "name": "\u5f69\u9999\u4e00\u6751\u5317\u95e8", "capacity": 20, "surrounding": "\u653f\u5e9c\u673a\u6784\u53ca\u793e\u4f1a\u56e2\u4f53", "district": "\u59d1\u82cf\u533a", "township": "\u77f3\u8def\u8857\u9053", "address": "\u5e72\u5c06\u897f\u8def\u5f69\u9999\u4e00\u6751\u5317\u95e8"}}
,{"type": "Feature", "geometry": {"type": "Point", "coordinates": [120.596574, 31.30624]}, "properties": {"id": 83, "name": "\u5e7f\u6d4e\u5357\u8def\u7ad94\u53f7\u51fa", "capacity": 30, "surrounding": "\u9910\u996e\u670d\u52a1", "district": "\u59d1\u82cf\u533a", "township": "\u77f3\u8def\u8857\u9053", "address": "\u5e72\u5c06\u897f\u8def1\u53f7\u7ebf\u5e7f\u6d4e\u5357\u7ad94\u53f7\u51fa\u53e3"}}
,{"type": "Feature", "geometry": {"type": "Point", "coordinates": [120.607004, 31.307067]}, "properties": {"id": 84, "name": "\u5e72\u5c06\u6865\u4e1c\u5317\u580d", "capacity": 20, "surrounding": "\u653f\u5e9c\u673a\u6784\u53ca\u793e\u4f1a\u56e2\u4f53", "district": "\u59d1\u82cf\u533a", "township": "\u6843\u82b1\u575e\u8857\u9053", "address": "\u5e72\u5c06\u4e1c\u8def\u5e72\u5c06\u6865\u5317"}}
,{"type": "Feature", "geometry": {"type": "Point", "coordinates": [120.609702, 31.307002]}, "properties": {"id": 85, "name": "\u517b\u80b2\u5df71\u53f7\u51fa\u53e3", "capacity": 40, "surrounding": "\u653f\u5e9c\u673a\u6784\u53ca\u793e\u4f1a\u56e2\u4f53", "district": "\u59d1\u82cf\u533a", "township": "\u6ca7\u6d6a\u8857\u9053", "address": "\u5e72\u5c06\u897f\u8def\u517b\u80b2\u5df71\u53f7\u51fa\u53e3"}}
,{"type": "Feature", "geometry": {"type": "Point", "coordinates": [120.608716, 31.307314]}, "properties": {"id": 86, "name": "\u517b\u80b2\u5df7\u7ad93\u53f7\u51fa\u53e3", "capacity": 40, "surrounding": "\u653f\u5e9c\u673a\u6784\u53ca\u793e\u4f1a\u56e2\u4f53", "district": "\u59d1\u82cf\u533a", "township": "\u6843\u82b1\u575e\u8857\u9053", "address": "\u5e72\u5c06\u897f\u8def1\u53f7\u7ebf\u517b\u80b2\u5df7\u7ad93\u53f7\u51fa\u53e3"}}
,{"type": "Feature", "geometry": {"type": "Point", "coordinates": [120.617651, 31.308246]}, "properties": {"id": 87, "name": "\u4e50\u6865\u7ad91\u53f7\u51fa\u53e3", "capacity": 24, "surrounding": "\u79d1\u6559\u6587\u5316\u670d\u52a1", "district": "\u59d1\u82cf\u533a", "township": "\u6ca7\u6d6a\u8857\u9053", "address": "\u5e72\u5c06\u897f\u8def\u4e50\u6865\u7ad91\u53f7\u51fa\u53e3"}}
,{"type": "Feature", "geometry": {"type": "Point", "coordinates": [120.622938, 31.309267]}, "properties": {"id": 88, "name": "\u8a00\u6865", "capacity": 20, "surrounding": "\u79d1\u6559\u6587\u5316\u670d\u52a1", "district": "\u59d1\u82cf\u533a", "township": "\u53cc\u5854\u8857\u9053", "address": "\u5e72\u5c06\u4e1c\u8def\u5357\u8a00\u6865"}}
,{"type": "Feature", "geometry": {"type": "Point", "coordinates": [120.625256, 31.309661]}, "properties": {"id": 89, "name": "\u4e34\u987f\u8def\u7ad91\u53f7\u51fa\u53e3", "capacity": 30, "surrounding": "\u79d1\u6559\u6587\u5316\u670d\u52a1", "district": "\u59d1\u82cf\u533a", "township": "\u53cc\u5854\u8857\u9053", "address": "\u5927\uff1a\u5e72\u5c06\u4e1c\u8def\u4e34\u987f\u8def\u7ad91\u53f7\u51fa\u53e3"}}
,{"type": "Feature", "geometry": {"type": "Point", "coordinates": [120.631315, 31.311102]}, "properties": {"id": 90, "name": "\u51ef\u83b1\u9152\u5e97", "capacity": 22, "surrounding": "\u79d1\u6559\u6587\u5316\u670d\u52a1", "district": "\u59d1\u82cf\u533a", "township": "\u53cc\u5854\u8857\u9053", "address": "\u5e72\u5c06\u4e1c\u8def\u51ef\u83b1\u9152\u5e97"}}
,{"type": "Feature", "geometry": {"type": "Point", "coordinates": [120.634529, 31.312088]}, "properties": {"id": 91, "name": "\u76f8\u95e8\u7ad93\u53f7\u51fa\u53e3", "capacity": 36, "surrounding": "\u5546\u52a1\u4f4f\u5b85", "district": "\u59d1\u82cf\u533a", "township": "\u5e73\u6c5f\u8857\u9053", "address": "\u5e72\u5c06\u4e1c\u8def1\u53f7\u7ebf\u76f8\u95e8\u7ad93\u53f7\u51fa\u53e3"}}
,{"type": "Feature", "geometry": {"type": "Point", "coordinates": [120.634689, 31.311697]}, "properties": {"id": 92, "name": "\u76f8\u95e8\u7ad91\u53f7\u51fa\u53e3", "capacity": 38, "surrounding": "\u5546\u52a1\u4f4f\u5b85", "district": "\u59d1\u82cf\u533a", "township": "\u53cc\u5854\u8857\u9053", "address": "\u5e72\u5c06\u4e1c\u8def1\u53f7\u7ebf\u76f8\u95e8\u7ad91\u53f7\u51fa\u53e3"}}
,{"type": "Feature", "geometry": {"type": "Point", "coordinates": [120.645495, 31.313951]}, "properties": {"id": 93, "name": "\u4e1c\u73af\u8def\u7ad91\u53f7\u51fa\u53e3", "capacity": 20, "surrounding": "\u79d1\u6559\u6587\u5316\u670d\u52a1", "district": "\u59d1\u82cf\u533a", "township": "\u8451\u95e8\u8857\u9053", "address": "\u4e1c\u73af\u8def\u4e1c\u73af\u8def\u7ad91\u53f7\u51fa\u53e3"}}
,{"type": "Feature", "geometry": {"type": "Point", "coordinates": [120.639479, 31.319573]}, "properties": {"id": 94, "name": "\u65b0\u6e58\u82d1\u793e\u533a", "capacity": 20, "surrounding": "\u79d1\u6559\u6587\u5316\u670d\u52a1", "district": "\u59d1\u82cf\u533a", "township": "\u5a04\u95e8\u8857\u9053", "address": "\u83ab\u90aa\u8def\u65b0\u6e58\u82d1\u897f"}}
,{"type": "Feature", "geometry": {"type": "Point", "coordinates": [120.637401, 31.322979]}, "properties": {"id": 95, "name": "\u83ab\u90aa\u8def\u65e5\u89c4\u8def\u53e3", "capacity": 20, "surrounding": "\u98ce\u666f\u540d\u80dc", "district": "\u59d1\u82cf\u533a", "township": "\u5a04\u95e8\u8857\u9053", "address": "\u83ab\u90aa\u8def\u65e5\u89c4\u8def\u53e3"}}
,{"type": "Feature", "geometry": {"type": "Point", "coordinates": [120.595394, 31.314655]}, "properties": {"id": 96, "name": "\u77f3\u8def\u7ad91\u53f7\u51fa\u53e3", "capacity": 28, "surrounding": "\u79d1\u6559\u6587\u5316\u670d\u52a1", "district": "\u59d1\u82cf\u533a", "township": "\u77f3\u8def\u8857\u9053", "address": "\u5e7f\u6d4e\u5357\u8def2\u53f7\u7ebf\u77f3\u8def\u7ad91\u53f7\u51fa\u53e3"}}
,{"type": "Feature", "geometry": {"type": "Point", "coordinates": [120.595651, 31.3143]}, "properties": {"id": 97, "name": "\u77f3\u8def\u7ad92\u53f7\u51fa\u53e3", "capacity": 22, "surrounding": "\u79d1\u6559\u6587\u5316\u670d\u52a1", "district": "\u59d1\u82cf\u533a", "township": "\u77f3\u8def\u8857\u9053", "address": "\u5e7f\u6d4e\u5357\u8def2\u53f7\u7ebf\u77f3\u8def\u7ad92\u53f7\u51fa\u53e3"}}
,{"type": "Feature", "geometry": {"type": "Point", "coordinates": [120.596348, 31.311785]}, "properties": {"id": 98, "name": "\u77f3\u8def\u7ad93\u53f7\u51fa\u53e3", "capacity": 32, "surrounding": "\u79d1\u6559\u6587\u5316\u670d\u52a1", "district": "\u59d1\u82cf\u533a", "township": "\u77f3\u8def\u8857\u9053", "address": "\u5e7f\u6d4e\u5357\u8def2\u53f7\u7ebf\u77f3\u8def\u7ad93\u53f7\u51fa\u53e3"}}
,{"type": "Feature", "geometry": {"type": "Point", "coordinates": [120.609088, 31.346148]}, "properties": {"id": 99, "name": "\u5e73\u6cf7\u8def\u4e1c\u7ad91", "capacity": 30, "surrounding": "\u9910\u996e\u670d\u52a1", "district": "\u59d1\u82cf\u533a", "township": "\u57ce\u5317\u8857\u9053", "address": "\u4eba\u6c11\u8def\u897f\u5e73\u6cf7\u8def\u4e1c\u7ad91\u53f7\u51fa\u53e3"}}
,{"type": "Feature", "geometry": {"type": "Point", "coordinates": [120.608658, 31.346116]}, "properties": {"id": 100, "name": "\u5e73\u6cf7\u8def\u4e1c\u7ad92", "capacity": 26, "surrounding": "\u653f\u5e9c\u673a\u6784\u53ca\u793e\u4f1a\u56e2\u4f53", "district": "\u59d1\u82cf\u533a", "township": "\u57ce\u5317\u8857\u9053", "address": "\u4eba\u6c11\u8def\u897f\u5e73\u6cf7\u8def\u4e1c\u7ad92\u53f7\u51fa\u53e3"}}
,{"type": "Feature", "geometry": {"type": "Point", "coordinates": [120.610329, 31.339819]}, "properties": {"id": 101, "name": "\u5e73\u6cb3\u8def", "capacity": 48, "surrounding": "\u5546\u52a1\u4f4f\u5b85", "district": "\u59d1\u82cf\u533a", "township": "\u82cf\u9526\u8857\u9053", "address": "\u5e73\u6cb3\u8def2\u53f7\u7ebf\u5e73\u6cb3\u8def\u7ad9"}}
,{"type": "Feature", "geometry": {"type": "Point", "coordinates": [120.606941, 31.333784]}, "properties": {"id": 102, "name": "\u706b\u5317\u5e7f\u573a\u4e1c\u4fa7", "capacity": 18, "surrounding": "\u4ea4\u901a\u8bbe\u65bd\u670d\u52a1", "district": "\u59d1\u82cf\u533a", "township": "\u82cf\u9526\u8857\u9053", "address": "\u82cf\u7ad9\u8def\u706b\u5317\u5e7f\u573a\u4e1c\u4fa7"}}
,{"type": "Feature", "geometry": {"type": "Point", "coordinates": [120.597077, 31.306582]}, "properties": {"id": 103, "name": "\u5e7f\u6d4e\u5357\u8def\u7ad93\u53f7\u51fa", "capacity": 40, "surrounding": "\u9910\u996e\u670d\u52a1", "district": "\u59d1\u82cf\u533a", "township": "\u77f3\u8def\u8857\u9053", "address": "\u5e7f\u6d4e\u5357\u8def2\u53f7\u7ebf\u5e7f\u6d4e\u5357\u8def\u7ad93\u53f7\u51fa\u53e3"}}
,{"type": "Feature", "geometry": {"type": "Point", "coordinates": [120.615841, 31.339738]}, "properties": {"id": 104, "name": "\u9526\u8377\u82d1", "capacity": 18, "surrounding": "\u5546\u52a1\u4f4f\u5b85", "district": "\u59d1\u82cf\u533a", "township": "\u82cf\u9526\u8857\u9053", "address": "\u9526\u8377\u8857\u9526\u8377\u82d1\u897f\u95e8"}}
,{"type": "Feature", "geometry": {"type": "Point", "coordinates": [120.592414, 31.294075]}, "properties": {"id": 105, "name": "\u52b3\u52a8\u8def\u7ad91", "capacity": 30, "surrounding": "\u5546\u52a1\u4f4f\u5b85", "district": "\u59d1\u82cf\u533a", "township": "\u80e5\u6c5f\u8857\u9053", "address": "\u52b3\u52a8\u8def\u7ad91\u53f7\u51fa\u53e3"}}
,{"type": "Feature", "geometry": {"type": "Point", "coordinates": [120.5942, 31.287622]}, "properties": {"id": 106, "name": "\u80e5\u6c5f\u8def\u7ad91\u53f7\u51fa\u53e3", "capacity": 54, "surrounding": "\u653f\u5e9c\u673a\u6784\u53ca\u793e\u4f1a\u56e2\u4f53", "district": "\u59d1\u82cf\u533a", "township": "\u5434\u95e8\u6865\u8857\u9053", "address": "\u6850\u6cfe\u5357\u8def2\u53f7\u7ebf\u80e5\u6c5f\u8def\u7ad91\u53f7\u51fa\u53e3"}}
,{"type": "Feature", "geometry": {"type": "Point", "coordinates": [120.595456, 31.28062]}, "properties": {"id": 107, "name": "\u6850\u6cfe\u516c\u56ed\u7ad92\u53f7\u51fa", "capacity": 40, "surrounding": "\u653f\u5e9c\u673a\u6784\u53ca\u793e\u4f1a\u56e2\u4f53", "district": "\u59d1\u82cf\u533a", "township": "\u53cb\u65b0\u8857\u9053", "address": "\u89e3\u653e\u897f\u8def2\u53f7\u7ebf\u6850\u6cfe\u516c\u56ed2\u53f7\u51fa\u53e3"}}
,{"type": "Feature", "geometry": {"type": "Point", "coordinates": [120.596024, 31.281256]}, "properties": {"id": 108, "name": "\u6850\u6cfe\u516c\u56ed\u7ad94\u53f7\u51fa", "capacity": 40, "surrounding": "\u653f\u5e9c\u673a\u6784\u53ca\u793e\u4f1a\u56e2\u4f53", "district": "\u59d1\u82cf\u533a", "township": "\u5434\u95e8\u6865\u8857\u9053", "address": "\u89e3\u653e\u4e1c\u8def2\u53f7\u7ebf\u6850\u6cfe\u516c\u56ed\u7ad94\u53f7\u51fa\u53e3"}}
,{"type": "Feature", "geometry": {"type": "Point", "coordinates": [120.604287, 31.273769]}, "properties": {"id": 109, "name": "\u957f\u5434\u8def\u7ad93\u53f7\u7ad9", "capacity": 48, "surrounding": "\u79d1\u6559\u6587\u5316\u670d\u52a1", "district": "\u59d1\u82cf\u533a", "township": "\u53cb\u65b0\u8857\u9053", "address": "\u5434\u4e2d\u897f\u8def2\u53f7\u7ebf\u957f\u5434\u8def\u7ad93\u53f7\u51fa\u53e3"}}
,{"type": "Feature", "geometry": {"type": "Point", "coordinates": [120.604137, 31.27338]}, "properties": {"id": 110, "name": "\u957f\u5434\u8def\u7ad91", "capacity": 46, "surrounding": "\u79d1\u6559\u6587\u5316\u670d\u52a1", "district": "\u59d1\u82cf\u533a", "township": "\u53cb\u65b0\u8857\u9053", "address": "\u5434\u4e2d\u897f\u8def2\u53f7\u7ebf\u957f\u5434\u8def\u7ad91\u53f7\u51fa\u53e3"}}
,{"type": "Feature", "geometry": {"type": "Point", "coordinates": [120.593556, 31.29472]}, "properties": {"id": 112, "name": "\u52b3\u52a8\u8def\u7ad92", "capacity": 40, "surrounding": "\u5546\u52a1\u4f4f\u5b85", "district": "\u59d1\u82cf\u533a", "township": "\u80e5\u6c5f\u8857\u9053", "address": "\u52b3\u52a8\u8def\u5317\u4fa7\u94f6\u6865\u65b0\u8f66\u5357\u516c\u4ea4\u7ad9\u53f0\u540e\u9762"}}
,{"type": "Feature", "geometry": {"type": "Point", "coordinates": [120.598381, 31.322304]}, "properties": {"id": 113, "name": "\u5e02\u7acb\u533b\u9662\u7ad9\u5317\u533a", "capacity": 32, "surrounding": "\u79d1\u6559\u6587\u5316\u670d\u52a1", "district": "\u59d1\u82cf\u533a", "township": "\u864e\u4e18\u8857\u9053", "address": "\u5e7f\u6d4e\u8def\u5e02\u7acb\u533b\u9662\u5317"}}
,{"type": "Feature", "geometry": {"type": "Point", "coordinates": [120.56973, 31.317584]}, "properties": {"id": 114, "name": "\u95fb\u949f\u82d1", "capacity": 20, "surrounding": "\u5546\u52a1\u4f4f\u5b85", "district": "\u59d1\u82cf\u533a", "township": "\u7559\u56ed\u8857\u9053", "address": "\u897f\u56ed\u8def\u897f\u73af\u8def\u53e3\u4e1c\u51cc\u96c6\u56e2\u95e8\u53e3"}}
,{"type": "Feature", "geometry": {"type": "Point", "coordinates": [120.577205, 31.318114]}, "properties": {"id": 115, "name": "\u519c\u4e1a\u804c\u4e1a\u6280\u672f\u5b66\u9662", "capacity": 30, "surrounding": "\u5546\u52a1\u4f4f\u5b85", "district": "\u59d1\u82cf\u533a", "township": "\u7559\u56ed\u8857\u9053", "address": "\u5927\uff1a\u897f\u56ed\u8def\u5317\u519c\u4e1a\u804c\u4e1a\u6280\u672f\u5b66\u9662"}}
,{"type": "Feature", "geometry": {"type": "Point", "coordinates": [120.591487, 31.268045]}, "properties": {"id": 116, "name": "\u548c\u8302\u82d1", "capacity": 30, "surrounding": "\u5546\u52a1\u4f4f\u5b85", "district": "\u59d1\u82cf\u533a", "township": "\u53cb\u65b0\u8857\u9053", "address": "\u8303\u6210\u5927\u8def\u4e1c\u5b9d\u5e26\u897f\u8def\u5317"}}
,{"type": "Feature", "geometry": {"type": "Point", "coordinates": [120.599344, 31.270721]}, "properties": {"id": 117, "name": "\u53cb\u65b0\u8def\u6768\u7d20\u8def\u53e3", "capacity": 30, "surrounding": "\u79d1\u6559\u6587\u5316\u670d\u52a1", "district": "\u59d1\u82cf\u533a", "township": "\u53cb\u65b0\u8857\u9053", "address": "\u53cb\u65b0\u8def\u6768\u7d20\u8def\u53e3\u897f\u4fa7"}}
,{"type": "Feature", "geometry": {"type": "Point", "coordinates": [120.597884, 31.273318]}, "properties": {"id": 118, "name": "\u798f\u661f\u65b0\u57ce", "capacity": 20, "surrounding": "\u79d1\u6559\u6587\u5316\u670d\u52a1", "district": "\u59d1\u82cf\u533a", "township": "\u53cb\u65b0\u8857\u9053", "address": "\u5434\u4e2d\u897f\u8def\u5317\u53cb\u65b0\u8def\u897f\u798f\u661f\u65b0\u57ce"}}
,{"type": "Feature", "geometry": {"type": "Point", "coordinates": [120.599174, 31.275591]}, "properties": {"id": 119, "name": "\u4ebf\u8c61\u57ce\uff08\u5bb6\u4e50\u798f\uff09", "capacity": 28, "surrounding": "\u79d1\u6559\u6587\u5316\u670d\u52a1", "district": "\u59d1\u82cf\u533a", "township": "\u53cb\u65b0\u8857\u9053", "address": "\u798f\u661f\u8def\uff0c\u53cb\u65b0\u8def\u4ea4\u53c9\u8def\u53e3"}}
,{"type": "Feature", "geometry": {"type": "Point", "coordinates": [120.604767, 31.279756]}, "properties": {"id": 120, "name": "\u5357\u73af\u897f\u8def\u957f\u5434\u8def\u53e3", "capacity": 30, "surrounding": "\u5546\u52a1\u4f4f\u5b85", "district": "\u59d1\u82cf\u533a", "township": "\u53cb\u65b0\u8857\u9053", "address": "\u5357\u73af\u897f\u8def\u957f\u5434\u8def\u53e3"}}
,{"type": "Feature", "geometry": {"type": "Point", "coordinates": [120.650668, 31.294573]}, "properties": {"id": 121, "name": "\u6768\u679d\u65b0\u6751", "capacity": 20, "surrounding": "\u79d1\u6559\u6587\u5316\u670d\u52a1", "district": "\u59d1\u82cf\u533a", "township": "\u8451\u95e8\u8857\u9053", "address": "\u4e1c\u73af\u8def\uff08\u4e1c\u632f\u8def\u659c\u5bf9\u9762\uff09"}}
,{"type": "Feature", "geometry": {"type": "Point", "coordinates": [120.646685, 31.291965]}, "properties": {"id": 122, "name": "\u91cc\u6cb3\u65b0\u6751", "capacity": 20, "surrounding": "\u5546\u52a1\u4f4f\u5b85", "district": "\u59d1\u82cf\u533a", "township": "\u8451\u95e8\u8857\u9053", "address": "\u6768\u679d\u5858\u8def\u5317\u83ab\u90aa\u8def\u4e1c"}}
,{"type": "Feature", "geometry": {"type": "Point", "coordinates": [120.614614, 31.295287]}, "properties": {"id": 123, "name": "\u4e1c\u5927\u8857\u5c0f\u5b66", "capacity": 24, "surrounding": "\u5546\u52a1\u4f4f\u5b85", "district": "\u59d1\u82cf\u533a", "township": "\u6ca7\u6d6a\u8857\u9053", "address": "\u4e1c\u5927\u8857\u4e1c\u65b0\u5e02\u8def\u5317"}}
,{"type": "Feature", "geometry": {"type": "Point", "coordinates": [120.570884, 31.315584]}, "properties": {"id": 124, "name": "\u54c1\u56ed\u897f", "capacity": 20, "surrounding": "\u5546\u52a1\u4f4f\u5b85", "district": "\u59d1\u82cf\u533a", "township": "\u7559\u56ed\u8857\u9053", "address": "\u897f\u73af\u8def\u54c1\u82d1\u5c0f\u533a\u897f"}}
,{"type": "Feature", "geometry": {"type": "Point", "coordinates": [120.584785, 31.324014]}, "properties": {"id": 125, "name": "\u4e94\u5f69\u56ed", "capacity": 20, "surrounding": "\u5546\u52a1\u4f4f\u5b85", "district": "\u59d1\u82cf\u533a", "township": "\u7559\u56ed\u8857\u9053", "address": "\u73bb\u7ea4\u8def\u6850\u6cfe\u5317\u8def\u4e1c\u4e94\u5f69\u56ed"}}
,{"type": "Feature", "geometry": {"type": "Point", "coordinates": [120.606371, 31.294962]}, "properties": {"id": 126, "name": "\u6cf0\u5357\u8def\u76d8\u80e5\u8def\u53e3", "capacity": 20, "surrounding": "\u5546\u52a1\u4f4f\u5b85", "district": "\u59d1\u82cf\u533a", "township": "\u80e5\u6c5f\u8857\u9053", "address": "\u76d8\u80e5\u8def\u897f\u6cf0\u5357\u8def\u5317"}}
,{"type": "Feature", "geometry": {"type": "Point", "coordinates": [120.589962, 31.278768]}, "properties": {"id": 127, "name": "\u89e3\u653e\u8def\u516c\u4ea4\u9996\u672b\u7ad9", "capacity": 20, "surrounding": "\u5546\u52a1\u4f4f\u5b85", "district": "\u59d1\u82cf\u533a", "township": "\u53cb\u65b0\u8857\u9053", "address": "\u89e3\u653e\u897f\u8def\u5357\u897f\u73af\u8def\u4e1c"}}
,{"type": "Feature", "geometry": {"type": "Point", "coordinates": [120.586321, 31.292978]}, "properties": {"id": 128, "name": "\u4e09\u9999\u798f\u90e1", "capacity": 36, "surrounding": "\u5546\u52a1\u4f4f\u5b85", "district": "\u59d1\u82cf\u533a", "township": "\u53cb\u65b0\u8857\u9053", "address": "\u52b3\u52a8\u8def\u5317\u53cc\u5143\u8def\u897f\u8def\u53e3"}}
,{"type": "Feature", "geometry": {"type": "Point", "coordinates": [120.585688, 31.280417]}, "properties": {"id": 129, "name": "\u897f\u73af\u65b0\u6751", "capacity": 20, "surrounding": "\u5546\u52a1\u4f4f\u5b85", "district": "\u59d1\u82cf\u533a", "township": "\u53cb\u65b0\u8857\u9053", "address": "\u897f\u73af\u8def\u4e1c\u89e3\u653e\u897f\u8def\u5317"}}
,{"type": "Feature", "geometry": {"type": "Point", "coordinates": [120.590712, 31.267253]}, "properties": {"id": 130, "name": "\u5b9d\u5e26\u897f\u8def\u8303\u6210\u5927\u8def", "capacity": 20, "surrounding": "\u5546\u52a1\u4f4f\u5b85", "district": "\u59d1\u82cf\u533a", "township": "\u53cb\u65b0\u8857\u9053", "address": "\u8303\u6210\u5927\u8def\u4e1c\u5b9d\u5e26\u897f\u8def\u5317"}}
,{"type": "Feature", "geometry": {"type": "Point", "coordinates": [120.614626, 31.293608]}, "properties": {"id": 131, "name": "\u65b0\u5e02\u8def\u5efa\u8bbe\u94f6\u884c", "capacity": 20, "surrounding": "\u5546\u52a1\u4f4f\u5b85", "district": "\u59d1\u82cf\u533a", "township": "\u6ca7\u6d6a\u8857\u9053", "address": "\u65b0\u5e02\u8def\u5317\u4e1c\u5927\u8857\u897f\u53e3"}}
,{"type": "Feature", "geometry": {"type": "Point", "coordinates": [120.595784, 31.327815]}, "properties": {"id": 132, "name": "\u6e05\u5858\u65b0\u6751", "capacity": 30, "surrounding": "\u653f\u5e9c\u673a\u6784\u53ca\u793e\u4f1a\u56e2\u4f53", "district": "\u59d1\u82cf\u533a", "township": "\u864e\u4e18\u8857\u9053", "address": "\u6e05\u5858\u8def\u6e05\u5858\u65b0\u6751\u4e1c\u95e8"}}
,{"type": "Feature", "geometry": {"type": "Point", "coordinates": [120.610085, 31.293212]}, "properties": {"id": 133, "name": "\u897f\u5927\u8857", "capacity": 20, "surrounding": "\u79d1\u6559\u6587\u5316\u670d\u52a1", "district": "\u59d1\u82cf\u533a", "township": "\u80e5\u6c5f\u8857\u9053", "address": "\u897f\u5927\u8857\u767e\u82b1\u5c71\u5e84"}}
,{"type": "Feature", "geometry": {"type": "Point", "coordinates": [120.561876, 31.332258]}, "properties": {"id": 134, "name": "\u6625\u99a8\u56ed\u5c0f\u533a", "capacity": 30, "surrounding": "\u516c\u53f8\u4f01\u4e1a", "district": "\u59d1\u82cf\u533a", "township": "\u767d\u6d0b\u6e7e\u8857\u9053", "address": "\u897f\u73af\u8def\u6625\u99a8\u56ed\u8def\u6625\u99a8\u56ed\u5c0f\u533a"}}
,{"type": "Feature", "geometry": {"type": "Point", "coordinates": [120.605355, 31.323558]}, "properties": {"id": 135, "name": "\u6843\u82b1\u5c0f\u7b51", "capacity": 20, "surrounding": "\u653f\u5e9c\u673a\u6784\u53ca\u793e\u4f1a\u56e2\u4f53", "district": "\u59d1\u82cf\u533a", "township": "\u6843\u82b1\u575e\u8857\u9053", "address": "\u6843\u82b1\u6865\u8def\u6843\u82b1\u5c0f\u7b51\u897f\u95e8"}}
,{"type": "Feature", "geometry": {"type": "Point", "coordinates": [120.607053, 31.336839]}, "properties": {"id": 136, "name": "\u5e73\u5ddd\u8def\u9526\u82b3\u8857\u53e3", "capacity": 20, "surrounding": "\u5546\u52a1\u4f4f\u5b85", "district": "\u59d1\u82cf\u533a", "township": "\u82cf\u9526\u8857\u9053", "address": "\u5927\uff1a\u5e73\u5ddd\u8def\u9526\u82b3\u8857\u53e3"}}
,{"type": "Feature", "geometry": {"type": "Point", "coordinates": [120.633234, 31.337791]}, "properties": {"id": 137, "name": "\u5b98\u6e0e\u82b1\u56ed", "capacity": 30, "surrounding": "\u5546\u52a1\u4f4f\u5b85", "district": "\u76f8\u57ce\u533a", "township": "[]", "address": "\u82cf\u7ad9\u8def\u5b98\u6e0e\u91cc\u516c\u4ea4\u7ad9\u9644\u8fd1"}}
,{"type": "Feature", "geometry": {"type": "Point", "coordinates": [120.622368, 31.336743]}, "properties": {"id": 138, "name": "\u9f0e\u5c1a\u82b1\u56ed", "capacity": 20, "surrounding": "\u5546\u52a1\u4f4f\u5b85", "district": "\u59d1\u82cf\u533a", "township": "\u5a04\u95e8\u8857\u9053", "address": "\u82cf\u7ad9\u8def\u9f0e\u5c1a\u82b1\u56ed\u53e3"}}
,{"type": "Feature", "geometry": {"type": "Point", "coordinates": [120.596739, 31.332852]}, "properties": {"id": 139, "name": "\u65b0\u5929\u5730\u5bb6\u56ed", "capacity": 20, "surrounding": "\u4f4f\u5bbf\u670d\u52a1", "district": "\u59d1\u82cf\u533a", "township": "\u82cf\u9526\u8857\u9053", "address": "\u82cf\u7ad9\u897f\u8def\u65b0\u5929\u5730\u5bb6\u56ed\u95e8\u53e3"}}
,{"type": "Feature", "geometry": {"type": "Point", "coordinates": [120.590789, 31.346494]}, "properties": {"id": 140, "name": "\u7f8e\u5730\u82b1\u56ed", "capacity": 28, "surrounding": "\u79d1\u6559\u6587\u5316\u670d\u52a1", "district": "\u59d1\u82cf\u533a", "township": "\u57ce\u5317\u8857\u9053", "address": "\u6c5f\u661f\u8def\u7f8e\u5730\u82b1\u56ed\u95e8\u53e3"}}
,{"type": "Feature", "geometry": {"type": "Point", "coordinates": [120.584566, 31.320239]}, "properties": {"id": 141, "name": "\u4ec1\u5b89\u8857", "capacity": 20, "surrounding": "\u79d1\u6559\u6587\u5316\u670d\u52a1", "district": "\u59d1\u82cf\u533a", "township": "\u7559\u56ed\u8857\u9053", "address": "\u76d1\u7ba1\uff1a\u6850\u6cfe\u5317\u8def\u4ec1\u5b89\u8857"}}
,{"type": "Feature", "geometry": {"type": "Point", "coordinates": [120.568317, 31.323951]}, "properties": {"id": 142, "name": "\u5609\u4e1a\u9633\u5149\u57ce", "capacity": 20, "surrounding": "\u5546\u52a1\u4f4f\u5b85", "district": "\u59d1\u82cf\u533a", "township": "\u7559\u56ed\u8857\u9053", "address": "\u897f\u73af\u8def\u5609\u4e1a\u9633\u5149\u57ce\u4e1c\u95e8\u516c\u4ea4\u7ad9"}}
,{"type": "Feature", "geometry": {"type": "Point", "coordinates": [120.603867, 31.263049]}, "properties": {"id": 143, "name": "\u4e07\u4f73\u82b1\u82d1", "capacity": 18, "surrounding": "\u79d1\u6559\u6587\u5316\u670d\u52a1", "district": "\u59d1\u82cf\u533a", "township": "\u53cb\u65b0\u8857\u9053", "address": "\u592a\u6e56\u897f\u8def\u5b9d\u8fd0\u8def\u8857\u53e3"}}
,{"type": "Feature", "geometry": {"type": "Point", "coordinates": [120.586258, 31.310083]}, "properties": {"id": 144, "name": "\u6850\u6cfe\u8def\u91d1\u95e8\u8def\u53e3", "capacity": 20, "surrounding": "\u5546\u52a1\u4f4f\u5b85", "district": "\u59d1\u82cf\u533a", "township": "\u91d1\u960a\u8857\u9053", "address": "\u6850\u6cfe\u5317\u8def\u91d1\u95e8\u8def\u53e3"}}
,{"type": "Feature", "geometry": {"type": "Point", "coordinates": [120.584847, 31.314946]}, "properties": {"id": 145, "name": "\u6765\u5ba2\u8302\u8d2d\u7269\u4e2d\u5fc3\u5317", "capacity": 30, "surrounding": "\u5546\u52a1\u4f4f\u5b85", "district": "\u59d1\u82cf\u533a", "township": "\u91d1\u960a\u8857\u9053", "address": "\u67ab\u6865\u8def\u6850\u6cfe\u5317\u8def\u53e3"}}
,{"type": "Feature", "geometry": {"type": "Point", "coordinates": [120.575963, 31.293398]}, "properties": {"id": 146, "name": "\u5965\u6797\u82b1\u56ed", "capacity": 30, "surrounding": "\u5546\u52a1\u4f4f\u5b85", "district": "\u59d1\u82cf\u533a", "township": "\u53cb\u65b0\u8857\u9053", "address": "\u4e94\u73af\u6865\u5965\u6797\u82b1\u56ed\u95e8\u53e3"}}
,{"type": "Feature", "geometry": {"type": "Point", "coordinates": [120.648162, 31.284917]}, "properties": {"id": 147, "name": "\u5357\u73af\u6865", "capacity": 40, "surrounding": "\u5546\u52a1\u4f4f\u5b85", "district": "\u59d1\u82cf\u533a", "township": "\u8451\u95e8\u8857\u9053", "address": "\u5357\u73af\u8def\u4e1c\u73af\u8def\u8def\u53e3"}}
,{"type": "Feature", "geometry": {"type": "Point", "coordinates": [120.63393, 31.281055]}, "properties": {"id": 148, "name": "\u6c7d\u8f66\u5357\u7ad9", "capacity": 30, "surrounding": "\u4f4f\u5bbf\u670d\u52a1", "district": "\u59d1\u82cf\u533a", "township": "\u5434\u95e8\u6865\u8857\u9053", "address": "\u5357\u73af\u8def\u8fce\u6625\u8def\u53e3"}}
,{"type": "Feature", "geometry": {"type": "Point", "coordinates": [120.591271, 31.271481]}, "properties": {"id": 149, "name": "\u6ca7\u6d6a\u65b0\u57ce\u6c47\u90bb\u4e2d\u5fc3", "capacity": 28, "surrounding": "\u79d1\u6559\u6587\u5316\u670d\u52a1", "district": "\u59d1\u82cf\u533a", "township": "\u53cb\u65b0\u8857\u9053", "address": "\u5434\u4e2d\u897f\u8def\u6c47\u90bb\u4e2d\u5fc3\u95e8\u53e3"}}
,{"type": "Feature", "geometry": {"type": "Point", "coordinates": [120.63981, 31.296066]}, "properties": {"id": 150, "name": "\u6842\u82b1\u516c\u56ed", "capacity": 20, "surrounding": "\u5546\u52a1\u4f4f\u5b85", "district": "\u59d1\u82cf\u533a", "township": "\u6ca7\u6d6a\u8857\u9053", "address": "\u7af9\u8f89\u8def\u5357\u7af9\u8f89\u6865\u897f\u580d"}}
,{"type": "Feature", "geometry": {"type": "Point", "coordinates": [120.636067, 31.327691]}, "properties": {"id": 151, "name": "\u5a04\u6c5f\u65b0\u6751", "capacity": 20, "surrounding": "\u653f\u5e9c\u673a\u6784\u53ca\u793e\u4f1a\u56e2\u4f53", "district": "\u59d1\u82cf\u533a", "township": "\u5a04\u95e8\u8857\u9053", "address": "\u83ab\u90aa\u8def\u5a04\u6c5f\u65b0\u6751\u897f"}}
,{"type": "Feature", "geometry": {"type": "Point", "coordinates": [120.63488, 31.335171]}, "properties": {"id": 152, "name": "\u6339\u79c0\u65b0\u6751", "capacity": 30, "surrounding": "\u5546\u52a1\u4f4f\u5b85", "district": "\u59d1\u82cf\u533a", "township": "\u5a04\u95e8\u8857\u9053", "address": "\u5317\u73af\u8def\u4e1c\u73af\u8def\u8def\u53e3"}}
,{"type": "Feature", "geometry": {"type": "Point", "coordinates": [120.620882, 31.330661]}, "properties": {"id": 153, "name": "\u5e73\u9f50\u82b1\u56ed", "capacity": 30, "surrounding": "\u4f4f\u5bbf\u670d\u52a1", "district": "\u59d1\u82cf\u533a", "township": "\u89c2\u524d\u8857\u9053", "address": "\u5e73\u9f50\u8def\u4e0e\u9f50\u95e8\u8def\u53e3"}}
,{"type": "Feature", "geometry": {"type": "Point", "coordinates": [120.635944, 31.331159]}, "properties": {"id": 154, "name": "\u7cd6\u574a\u6e7e", "capacity": 30, "surrounding": "\u5546\u52a1\u4f4f\u5b85", "district": "\u59d1\u82cf\u533a", "township": "\u5a04\u95e8\u8857\u9053", "address": "\u83ab\u90aa\u8def\u4e0e\u7cd6\u574a\u6e7e\u652f\u8def\u53e3"}}
,{"type": "Feature", "geometry": {"type": "Point", "coordinates": [120.588513, 31.300051]}, "properties": {"id": 155, "name": "\u6850\u6cfe\u8def\u4e09\u9999\u8def\u8def\u53e3", "capacity": 20, "surrounding": "\u79d1\u6559\u6587\u5316\u670d\u52a1", "district": "\u59d1\u82cf\u533a", "township": "\u80e5\u6c5f\u8857\u9053", "address": "\u5927\uff1a\u6850\u6cfe\u8def\u4e09\u9999\u8def\u8def\u53e3"}}
,{"type": "Feature", "geometry": {"type": "Point", "coordinates": [120.59566, 31.266968]}, "properties": {"id": 156, "name": "\u4e16\u8d38\u8fd0\u6cb3\u57ce\u4e1c", "capacity": 30, "surrounding": "\u9910\u996e\u670d\u52a1", "district": "\u59d1\u82cf\u533a", "township": "\u53cb\u65b0\u8857\u9053", "address": "\u65b0\u90ed\u8def\u5927\u6da6\u53d1"}}
,{"type": "Feature", "geometry": {"type": "Point", "coordinates": [120.540966, 31.374066]}, "properties": {"id": 400, "name": "\u4e2d\u6d77\u5fa1\u666f\u6e7e", "capacity": 28, "surrounding": "\u79d1\u6559\u6587\u5316\u670d\u52a1", "district": "\u59d1\u82cf\u533a", "township": "\u767d\u6d0b\u6e7e\u8857\u9053", "address": "\u706b\u8f66\u6d5c\u6865"}}
,{"type": "Feature", "geometry": {"type": "Point", "coordinates": [120.542786, 31.367206]}, "properties": {"id": 401, "name": "\u91d1\u4ebf\u57ce", "capacity": 34, "surrounding": "\u79d1\u6559\u6587\u5316\u670d\u52a1", "district": "\u59d1\u82cf\u533a", "township": "\u767d\u6d0b\u6e7e\u8857\u9053", "address": "\u9646\u6b65\u6865\u8857\u91d1\u4ebf\u57ce"}}
,{"type": "Feature", "geometry": {"type": "Point", "coordinates": [120.540391, 31.373145]}, "properties": {"id": 402, "name": "\u5b9d\u6797\u82d1\u897f", "capacity": 30, "surrounding": "\u79d1\u6559\u6587\u5316\u670d\u52a1", "district": "\u59d1\u82cf\u533a", "township": "\u767d\u6d0b\u6e7e\u8857\u9053", "address": "\u706b\u8f66\u6d5c\u6865"}}
,{"type": "Feature", "geometry": {"type": "Point", "coordinates": [120.538841, 31.368301]}, "properties": {"id": 403, "name": "\u85d5\u5df7\u65b0\u6751", "capacity": 32, "surrounding": "\u79d1\u6559\u6587\u5316\u670d\u52a1", "district": "\u59d1\u82cf\u533a", "township": "\u767d\u6d0b\u6e7e\u8857\u9053", "address": "\u85d5\u5df7\u8857\u85d5\u5df7\u65b0\u6751\u897f\u5317\u95e8"}}
,{"type": "Feature", "geometry": {"type": "Point", "coordinates": [120.549818, 31.361727]}, "properties": {"id": 404, "name": "\u5357\u5c71\u91d1\u57ce", "capacity": 24, "surrounding": "\u79d1\u6559\u6587\u5316\u670d\u52a1", "district": "\u59d1\u82cf\u533a", "township": "\u767d\u6d0b\u6e7e\u8857\u9053", "address": "\u864e\u6bbf\u8def\u5357\u5c71\u91d1\u57ce"}}
,{"type": "Feature", "geometry": {"type": "Point", "coordinates": [120.545671, 31.360736]}, "properties": {"id": 405, "name": "\u5357\u5c71\u91d1\u57ce\u5546\u4e1a\u8857", "capacity": 28, "surrounding": "\u79d1\u6559\u6587\u5316\u670d\u52a1", "district": "\u59d1\u82cf\u533a", "township": "\u767d\u6d0b\u6e7e\u8857\u9053", "address": "\u57ce\u5317\u897f\u8def\u5357\u5c71\u91d1\u57ce"}}
,{"type": "Feature", "geometry": {"type": "Point", "coordinates": [120.542996, 31.362728]}, "properties": {"id": 406, "name": "\u5bcc\u5f3a\u65b0\u6751", "capacity": 30, "surrounding": "\u79d1\u6559\u6587\u5316\u670d\u52a1", "district": "\u59d1\u82cf\u533a", "township": "\u767d\u6d0b\u6e7e\u8857\u9053", "address": "\u57ce\u5317\u897f\u8def\u5bcc\u5f3a\u65b0\u6751"}}
,{"type": "Feature", "geometry": {"type": "Point", "coordinates": [120.537403, 31.361091]}, "properties": {"id": 407, "name": "\u91d1\u7b51\u5bb6\u56ed", "capacity": 30, "surrounding": "\u5546\u52a1\u4f4f\u5b85", "district": "\u59d1\u82cf\u533a", "township": "\u767d\u6d0b\u6e7e\u8857\u9053", "address": "\u864e\u6c60\u8def\u91d1\u7b51\u5bb6\u56ed"}}
,{"type": "Feature", "geometry": {"type": "Point", "coordinates": [120.539658, 31.365212]}, "properties": {"id": 408, "name": "\u9646\u6b65\u6865\u516c\u4ea4\u9996\u672b\u7ad9", "capacity": 32, "surrounding": "\u79d1\u6559\u6587\u5316\u670d\u52a1", "district": "\u59d1\u82cf\u533a", "township": "\u767d\u6d0b\u6e7e\u8857\u9053", "address": "\u9646\u6b65\u6865\u8857"}}
,{"type": "Feature", "geometry": {"type": "Point", "coordinates": [120.55126, 31.350919]}, "properties": {"id": 409, "name": "\u7269\u6d41\u670d\u52a1\u5927\u53a6", "capacity": 30, "surrounding": "\u5546\u52a1\u4f4f\u5b85", "district": "\u59d1\u82cf\u533a", "township": "\u767d\u6d0b\u6e7e\u8857\u9053", "address": "\u91d1\u50a8\u8857\u7269\u6d41\u5927\u53a6"}}
,{"type": "Feature", "geometry": {"type": "Point", "coordinates": [120.558043, 31.346971]}, "properties": {"id": 410, "name": "\u4e94\u91d1\u673a\u7535\u57ce", "capacity": 30, "surrounding": "\u8d2d\u7269\u670d\u52a1", "district": "\u59d1\u82cf\u533a", "township": "\u767d\u6d0b\u6e7e\u8857\u9053", "address": "\u91d1\u4e1a\u8857\u4e94\u91d1\u673a\u7535\u57ce"}}
,{"type": "Feature", "geometry": {"type": "Point", "coordinates": [120.559705, 31.345343]}, "properties": {"id": 411, "name": "\u5c0f\u5546\u54c1\u57ce\u548c\u6cf0\u5bb6\u56ed", "capacity": 32, "surrounding": "\u8d2d\u7269\u670d\u52a1", "district": "\u59d1\u82cf\u533a", "township": "\u767d\u6d0b\u6e7e\u8857\u9053", "address": "\u864e\u6c60\u8def\u957f\u6cfe\u5858\u8def"}}
,{"type": "Feature", "geometry": {"type": "Point", "coordinates": [120.545895, 31.367185]}, "properties": {"id": 413, "name": "\u767d\u6d0b\u8857\u9053\u670d\u52a1\u4e2d\u5fc3", "capacity": 30, "surrounding": "\u79d1\u6559\u6587\u5316\u670d\u52a1", "district": "\u59d1\u82cf\u533a", "township": "\u767d\u6d0b\u6e7e\u8857\u9053", "address": "\u864e\u6bbf\u8def\u670d\u52a1\u4e2d\u5fc3\u53e3"}}
,{"type": "Feature", "geometry": {"type": "Point", "coordinates": [120.54291, 31.364587]}, "properties": {"id": 414, "name": "\u767d\u6d0b\u6e7e\u793e\u533a", "capacity": 30, "surrounding": "\u79d1\u6559\u6587\u5316\u670d\u52a1", "district": "\u59d1\u82cf\u533a", "township": "\u767d\u6d0b\u6e7e\u8857\u9053", "address": "\u5bcc\u4e2d\u8857\u793e\u533a\u53e3"}}
,{"type": "Feature", "geometry": {"type": "Point", "coordinates": [120.560611, 31.343257]}, "properties": {"id": 415, "name": "\u767d\u6d0b\u6e7e\u82b1\u56ed", "capacity": 28, "surrounding": "\u5730\u540d\u5730\u5740\u4fe1\u606f", "district": "\u59d1\u82cf\u533a", "township": "\u767d\u6d0b\u6e7e\u8857\u9053", "address": "\u767d\u6d0b\u8857\u516c\u56ed\u53e3"}}
,{"type": "Feature", "geometry": {"type": "Point", "coordinates": [120.593077, 31.348033]}, "properties": {"id": 416, "name": "\u5e73\u6d77\u8def\u516c\u4ea4\u9996\u672b\u7ad9", "capacity": 24, "surrounding": "\u79d1\u6559\u6587\u5316\u670d\u52a1", "district": "\u59d1\u82cf\u533a", "township": "\u57ce\u5317\u8857\u9053", "address": "\u5e73\u6d77\u8def\u5317\u6c5f\u6708\u8def\u4e1c\u8def\u53e3"}}
,{"type": "Feature", "geometry": {"type": "Point", "coordinates": [120.61029, 31.349056]}, "properties": {"id": 417, "name": "\u516c\u5b89\u8f68\u4ea4\u6cbb\u5b89\u5206\u5c40", "capacity": 30, "surrounding": "\u653f\u5e9c\u673a\u6784\u53ca\u793e\u4f1a\u56e2\u4f53", "district": "\u76f8\u57ce\u533a", "township": "[]", "address": "\u5e73\u6d77\u8def\u4eba\u6c11\u8def\u53e3"}}
,{"type": "Feature", "geometry": {"type": "Point", "coordinates": [120.61449, 31.347482]}, "properties": {"id": 418, "name": "\u548c\u6da6\u5bb6\u56ed", "capacity": 30, "surrounding": "\u653f\u5e9c\u673a\u6784\u53ca\u793e\u4f1a\u56e2\u4f53", "district": "\u59d1\u82cf\u533a", "township": "\u57ce\u5317\u8857\u9053", "address": "\u5e73\u6cf7\u8def\u548c\u6da6\u5bb6\u56ed\u5357"}}
,{"type": "Feature", "geometry": {"type": "Point", "coordinates": [120.597885, 31.336793]}, "properties": {"id": 419, "name": "\u5e73\u6c5f\u533b\u9662", "capacity": 30, "surrounding": "\u533b\u7597\u4fdd\u5065\u670d\u52a1", "district": "\u59d1\u82cf\u533a", "township": "\u82cf\u9526\u8857\u9053", "address": "\u5e73\u5ddd\u8def\u5e73\u4ef7\u533b\u9662\u4e1c"}}
,{"type": "Feature", "geometry": {"type": "Point", "coordinates": [120.591591, 31.341752]}, "properties": {"id": 420, "name": "\u6c5f\u661f\u5546\u4e1a\u5e7f\u573a", "capacity": 30, "surrounding": "\u79d1\u6559\u6587\u5316\u670d\u52a1", "district": "\u59d1\u82cf\u533a", "township": "\u57ce\u5317\u8857\u9053", "address": "\u5e73\u6cf7\u8def\u6c5f\u661f\u5546\u4e1a\u5e7f\u573a"}}
,{"type": "Feature", "geometry": {"type": "Point", "coordinates": [120.60018, 31.343045]}, "properties": {"id": 422, "name": "\u4ef2\u96c5\u82d1", "capacity": 20, "surrounding": "\u79d1\u6559\u6587\u5316\u670d\u52a1", "district": "\u59d1\u82cf\u533a", "township": "\u57ce\u5317\u8857\u9053", "address": "\u5e73\u6cf7\u8def\u4ef2\u96c5\u82d1"}}
,{"type": "Feature", "geometry": {"type": "Point", "coordinates": [120.600708, 31.340769]}, "properties": {"id": 423, "name": "\u7eff\u99a8\u56ed", "capacity": 22, "surrounding": "\u5546\u52a1\u4f4f\u5b85", "district": "\u59d1\u82cf\u533a", "township": "\u82cf\u9526\u8857\u9053", "address": "\u5e7f\u6d4e\u5317\u8def\u7eff\u99a8\u56ed"}}
,{"type": "Feature", "geometry": {"type": "Point", "coordinates": [120.617172, 31.342327]}, "properties": {"id": 424, "name": "\u4e2d\u6881\u5929\u5fa1", "capacity": 24, "surrounding": "\u5546\u52a1\u4f4f\u5b85", "district": "\u59d1\u82cf\u533a", "township": "\u82cf\u9526\u8857\u9053", "address": "\u6c5f\u5b99\u8def\u4e2d\u6881\u5929\u5fa1"}}
,{"type": "Feature", "geometry": {"type": "Point", "coordinates": [120.60513, 31.340442]}, "properties": {"id": 425, "name": "\u6a58\u90e1\u82b1\u56ed", "capacity": 30, "surrounding": "\u5546\u52a1\u4f4f\u5b85", "district": "\u59d1\u82cf\u533a", "township": "\u82cf\u9526\u8857\u9053", "address": "\u6c5f\u5764\u8def\u603b\u7ba1\u5858\u8def"}}
,{"type": "Feature", "geometry": {"type": "Point", "coordinates": [120.595755, 31.33955]}, "properties": {"id": 426, "name": "\u6a58\u5b50\u56fd\u82b1\u56ed\u897f", "capacity": 30, "surrounding": "\u79d1\u6559\u6587\u5316\u670d\u52a1", "district": "\u59d1\u82cf\u533a", "township": "\u82cf\u9526\u8857\u9053", "address": "\u6c5f\u6708\u8def\u6a58\u5b50\u56fd\u82b1\u56ed"}}
,{"type": "Feature", "geometry": {"type": "Point", "coordinates": [120.611036, 31.344252]}, "properties": {"id": 427, "name": "\u65fa\u5b85\u8def\u4e07\u8fbe\u5e7f\u573a", "capacity": 30, "surrounding": "\u9910\u996e\u670d\u52a1", "district": "\u59d1\u82cf\u533a", "township": "\u57ce\u5317\u8857\u9053", "address": "\u65fa\u5b85\u8def\u4e07\u8fbe\u95e8\u53e3"}}
,{"type": "Feature", "geometry": {"type": "Point", "coordinates": [120.625976, 31.333038]}, "properties": {"id": 428, "name": "\u4e1c\u6c47\u516c\u56ed", "capacity": 30, "surrounding": "\u5546\u52a1\u4f4f\u5b85", "district": "\u59d1\u82cf\u533a", "township": "\u5a04\u95e8\u8857\u9053", "address": "\u4e1c\u6c47\u8def\u6092\u79c0\u540e\u95e8\u53e3"}}
,{"type": "Feature", "geometry": {"type": "Point", "coordinates": [120.589281, 31.332127]}, "properties": {"id": 429, "name": "\u864e\u961c\u82b1\u56ed", "capacity": 38, "surrounding": "\u5730\u540d\u5730\u5740\u4fe1\u606f", "district": "\u59d1\u82cf\u533a", "township": "\u864e\u4e18\u8857\u9053", "address": "\u6e05\u5858\u8def\u864e\u961c\u82b1\u56ed\u95e8\u53e3"}}
,{"type": "Feature", "geometry": {"type": "Point", "coordinates": [120.608925, 31.32993]}, "properties": {"id": 430, "name": "\u706b\u8f66\u7ad9\u5357\u5e7f\u573a", "capacity": 40, "surrounding": "\u4ea4\u901a\u8bbe\u65bd\u670d\u52a1", "district": "\u59d1\u82cf\u533a", "township": "\u82cf\u9526\u8857\u9053", "address": "\u5927\uff1a\u706b\u8f66\u7ad9\u5357\u5e7f\u573a\u5185"}}
,{"type": "Feature", "geometry": {"type": "Point", "coordinates": [120.600483, 31.346607]}, "properties": {"id": 431, "name": "\u7b2c\u4e00\u4eba\u6c11\u533b\u9662\u5206\u9662", "capacity": 40, "surrounding": "\u79d1\u6559\u6587\u5316\u670d\u52a1", "district": "\u59d1\u82cf\u533a", "township": "\u57ce\u5317\u8857\u9053", "address": "\u5317\u4ed3\u8857 \u767d\u5854\u4e1c\u8def\u4ea4\u53c9\u53e3"}}
,{"type": "Feature", "geometry": {"type": "Point", "coordinates": [120.541849, 31.367791]}, "properties": {"id": 432, "name": "\u85d5\u5df7\u65b0\u6751\u4e1c\u95e8", "capacity": 30, "surrounding": "\u79d1\u6559\u6587\u5316\u670d\u52a1", "district": "\u59d1\u82cf\u533a", "township": "\u767d\u6d0b\u6e7e\u8857\u9053", "address": "\u5317\u4ed3\u8857 \u767d\u5854\u4e1c\u8def\u4ea4\u53c9\u53e3"}}
,{"type": "Feature", "geometry": {"type": "Point", "coordinates": [120.540089, 31.372993]}, "properties": {"id": 433, "name": "\u4e2d\u6d77\u5fa1\u666f\u6e7e\u4e1c\u95e8", "capacity": 30, "surrounding": "\u79d1\u6559\u6587\u5316\u670d\u52a1", "district": "\u59d1\u82cf\u533a", "township": "\u767d\u6d0b\u6e7e\u8857\u9053", "address": "\u534e\u5143\u8def"}}
,{"type": "Feature", "geometry": {"type": "Point", "coordinates": [120.599616, 31.268185]}, "properties": {"id": 434, "name": "\u6ca7\u6d6a\u89c4\u5212\u9986", "capacity": 30, "surrounding": "\u79d1\u6559\u6587\u5316\u670d\u52a1", "district": "\u59d1\u82cf\u533a", "township": "\u53cb\u65b0\u8857\u9053", "address": "\u5b9d\u5e26\u897f\u8def\u548c\u53cb\u65b0\u8def\u5341\u5b57\u53e3"}}
,{"type": "Feature", "geometry": {"type": "Point", "coordinates": [120.624729, 31.306502]}, "properties": {"id": 435, "name": "\u82cf\u5dde\u516c\u56ed\u4e1c\u95e8", "capacity": 20, "surrounding": "\u653f\u5e9c\u673a\u6784\u53ca\u793e\u4f1a\u56e2\u4f53", "district": "\u59d1\u82cf\u533a", "township": "\u53cc\u5854\u8857\u9053", "address": "\u516c\u56ed\u8def\u897f\u6c11\u6cbb\u8def\u5317\uff0c\u82cf\u5dde\u516c\u56ed\u4e1c\u95e8"}}
,{"type": "Feature", "geometry": {"type": "Point", "coordinates": [120.608198, 31.303045]}, "properties": {"id": 436, "name": "\u5b66\u58eb\u6797", "capacity": 18, "surrounding": "\u79d1\u6559\u6587\u5316\u670d\u52a1", "district": "\u59d1\u82cf\u533a", "township": "\u80e5\u6c5f\u8857\u9053", "address": "\u5b66\u58eb\u8857\u9053\u524d\u8857"}}
,{"type": "Feature", "geometry": {"type": "Point", "coordinates": [120.579694, 31.324437]}, "properties": {"id": 437, "name": "\u7396\u56ed\u5c0f\u533a", "capacity": 28, "surrounding": "\u653f\u5e9c\u673a\u6784\u53ca\u793e\u4f1a\u56e2\u4f53", "district": "\u59d1\u82cf\u533a", "township": "\u7559\u56ed\u8857\u9053", "address": "\u864e\u4e18\u8def\u7396\u56ed\u5c0f\u533a"}}
,{"type": "Feature", "geometry": {"type": "Point", "coordinates": [120.590429, 31.281065]}, "properties": {"id": 438, "name": "\u6e2f\u52a1\u8def\u91d1\u5e1d\u540d\u56ed", "capacity": 30, "surrounding": "\u5546\u52a1\u4f4f\u5b85", "district": "\u59d1\u82cf\u533a", "township": "\u53cb\u65b0\u8857\u9053", "address": "\u6e2f\u52a1\u8def\u91d1\u5e1d\u540d\u56ed"}}
,{"type": "Feature", "geometry": {"type": "Point", "coordinates": [120.585583, 31.299966]}, "properties": {"id": 439, "name": "\u5f69\u9999\u4e8c\u6751", "capacity": 30, "surrounding": "\u79d1\u6559\u6587\u5316\u670d\u52a1", "district": "\u59d1\u82cf\u533a", "township": "\u91d1\u960a\u8857\u9053", "address": "\u90ae\u653f\u94f6\u884c\u95e8\u53e3"}}
,{"type": "Feature", "geometry": {"type": "Point", "coordinates": [120.595043, 31.301065]}, "properties": {"id": 440, "name": "\u4f9b\u7535\u5c40", "capacity": 30, "surrounding": "\u5546\u52a1\u4f4f\u5b85", "district": "\u59d1\u82cf\u533a", "township": "\u77f3\u8def\u8857\u9053", "address": "\u4e09\u9999\u8def\u4f9b\u7535\u5c40\u95e8\u53e3"}}
,{"type": "Feature", "geometry": {"type": "Point", "coordinates": [120.6004, 31.290758]}, "properties": {"id": 441, "name": "\u4e1c\u65b9\u82d1\u5c0f\u533a\u5317\u95e8", "capacity": 20, "surrounding": "\u5546\u52a1\u4f4f\u5b85", "district": "\u59d1\u82cf\u533a", "township": "\u80e5\u6c5f\u8857\u9053", "address": "\u80e5\u6c5f\u8def"}}
,{"type": "Feature", "geometry": {"type": "Point", "coordinates": [120.593422, 31.305613]}, "properties": {"id": 442, "name": "\u5e72\u5c06\u8def\u70fd\u706b\u8def\u53e3", "capacity": 30, "surrounding": "\u5546\u52a1\u4f4f\u5b85", "district": "\u59d1\u82cf\u533a", "township": "\u77f3\u8def\u8857\u9053", "address": "\u5e72\u5c06\u8def\u5357\u70fd\u706b\u8def\u5341\u5b57\u8def\u53e3"}}
,{"type": "Feature", "geometry": {"type": "Point", "coordinates": [120.599761, 31.282454]}, "properties": {"id": 443, "name": "\u4e2d\u7ea7\u4eba\u6c11\u6cd5\u9662", "capacity": 30, "surrounding": "\u653f\u5e9c\u673a\u6784\u53ca\u793e\u4f1a\u56e2\u4f53", "district": "\u59d1\u82cf\u533a", "township": "\u5434\u95e8\u6865\u8857\u9053", "address": "\u89e3\u653e\u4e1c\u8def"}}
,{"type": "Feature", "geometry": {"type": "Point", "coordinates": [120.607258, 31.302393]}, "properties": {"id": 447, "name": "\u59d1\u80e5\u6865\u4e1c\u580d", "capacity": 30, "surrounding": "\u5546\u52a1\u4f4f\u5b85", "district": "\u59d1\u82cf\u533a", "township": "\u80e5\u6c5f\u8857\u9053", "address": "\u9053\u524d\u8857\u59d1\u80e5\u6865\u4e1c\u580d"}}
,{"type": "Feature", "geometry": {"type": "Point", "coordinates": [120.576245, 31.303871]}, "properties": {"id": 449, "name": "\u6b23\u5609\u56ed", "capacity": 30, "surrounding": "\u5546\u52a1\u4f4f\u5b85", "district": "\u59d1\u82cf\u533a", "township": "\u91d1\u960a\u8857\u9053", "address": "\u5e72\u5c06\u897f\u8def\u5357\u7edc\u9999\u8def\u4e1c\u6b23\u5609\u56ed\uff08\u4e2d\u56fd\u79fb\u52a8\u5bf9\u9762\uff09"}}
,{"type": "Feature", "geometry": {"type": "Point", "coordinates": [120.581873, 31.289499]}, "properties": {"id": 450, "name": "\u4e07\u79d1\u91d1\u54c1\u5bb6\u56ed", "capacity": 30, "surrounding": "\u653f\u5e9c\u673a\u6784\u53ca\u793e\u4f1a\u56e2\u4f53", "district": "\u59d1\u82cf\u533a", "township": "\u53cb\u65b0\u8857\u9053", "address": "\u52b3\u52a8\u8def\u4e07\u79d1\u91d1\u54c1\u516c\u4ea4\u7ad9\u53f0"}}
,{"type": "Feature", "geometry": {"type": "Point", "coordinates": [120.576385, 31.298785]}, "properties": {"id": 451, "name": "\u9769\u547d\u535a\u7269\u9986", "capacity": 30, "surrounding": "\u533b\u7597\u4fdd\u5065\u670d\u52a1", "district": "\u59d1\u82cf\u533a", "township": "\u91d1\u960a\u8857\u9053", "address": "\u4e09\u9999\u8def\u9769\u547d\u535a\u7269\u9986\u5bb6\u4e50\u798f\u659c\u5bf9\u9762"}}
,{"type": "Feature", "geometry": {"type": "Point", "coordinates": [120.575917, 31.291733]}, "properties": {"id": 452, "name": "\u5e7f\u5927\u5bb6\u56ed", "capacity": 30, "surrounding": "\u5546\u52a1\u4f4f\u5b85", "district": "\u59d1\u82cf\u533a", "township": "\u53cb\u65b0\u8857\u9053", "address": "\u897f\u73af\u8def\u91d1\u87b3\u8782\u659c\u5bf9\u9762"}}
,{"type": "Feature", "geometry": {"type": "Point", "coordinates": [120.613012, 31.302173]}, "properties": {"id": 453, "name": "\u6587\u5316\u5e02\u573a", "capacity": 24, "surrounding": "\u79d1\u6559\u6587\u5316\u670d\u52a1", "district": "\u59d1\u82cf\u533a", "township": "\u6ca7\u6d6a\u8857\u9053", "address": "\u4e1c\u5927\u8857\u6587\u5316\u5e02\u573a"}}
,{"type": "Feature", "geometry": {"type": "Point", "coordinates": [120.536516, 31.361074]}, "properties": {"id": 454, "name": "\u548c\u7f8e\u5bb6\u56ed\u5317\u95e8", "capacity": 30, "surrounding": "\u5546\u52a1\u4f4f\u5b85", "district": "\u59d1\u82cf\u533a", "township": "\u767d\u6d0b\u6e7e\u8857\u9053", "address": "\u864e\u6c60\u8def\u548c\u7f8e\u5bb6\u56ed\u5317\u95e8"}}
,{"type": "Feature", "geometry": {"type": "Point", "coordinates": [120.595064, 31.284425]}, "properties": {"id": 455, "name": "\u6850\u6cfe\u516c\u56ed", "capacity": 30, "surrounding": "\u653f\u5e9c\u673a\u6784\u53ca\u793e\u4f1a\u56e2\u4f53", "district": "\u59d1\u82cf\u533a", "township": "\u5434\u95e8\u6865\u8857\u9053", "address": "\u6850\u6cfe\u5357\u8def"}}
,{"type": "Feature", "geometry": {"type": "Point", "coordinates": [120.596752, 31.2627]}, "properties": {"id": 456, "name": "\u4e16\u8302\u701a\u548c\u82d1", "capacity": 34, "surrounding": "\u79d1\u6559\u6587\u5316\u670d\u52a1", "district": "\u59d1\u82cf\u533a", "township": "\u53cb\u65b0\u8857\u9053", "address": "\u592a\u6e56\u897f\u8def\u4e16\u8302\u701a\u548c\u82d1\u5357"}}
,{"type": "Feature", "geometry": {"type": "Point", "coordinates": [120.586879, 31.27105]}, "properties": {"id": 457, "name": "\u519c\u4ea7\u54c1\u6279\u53d1\u5e02\u573a", "capacity": 30, "surrounding": "\u79d1\u6559\u6587\u5316\u670d\u52a1", "district": "\u59d1\u82cf\u533a", "township": "\u53cb\u65b0\u8857\u9053", "address": "\u798f\u8fd0\u8def\u519c\u4ea7\u54c1\u6279\u53d1\u5e02\u573a"}}
,{"type": "Feature", "geometry": {"type": "Point", "coordinates": [120.590621, 31.266175]}, "properties": {"id": 458, "name": "\u5c1a\u8fd0\u82d1", "capacity": 30, "surrounding": "\u5546\u52a1\u4f4f\u5b85", "district": "\u59d1\u82cf\u533a", "township": "\u53cb\u65b0\u8857\u9053", "address": "\u8303\u6210\u5927\u8def\u897f\u5317"}}
,{"type": "Feature", "geometry": {"type": "Point", "coordinates": [120.592323, 31.270565]}, "properties": {"id": 459, "name": "\u4e2d\u533b\u9662\u897f", "capacity": 30, "surrounding": "\u79d1\u6559\u6587\u5316\u670d\u52a1", "district": "\u59d1\u82cf\u533a", "township": "\u53cb\u65b0\u8857\u9053", "address": "\u65b0\u90ed\u8def"}}
,{"type": "Feature", "geometry": {"type": "Point", "coordinates": [120.62429, 31.300674]}, "properties": {"id": 460, "name": "\u89c4\u5212\u5c40", "capacity": 24, "surrounding": "\u79d1\u6559\u6587\u5316\u670d\u52a1", "district": "\u59d1\u82cf\u533a", "township": "\u53cc\u5854\u8857\u9053", "address": "\u76d1\u7ba1\uff1a\u4e4c\u9e4a\u6865\u4e1c\u5341\u5168\u8857\u5357\u8def\u53e3"}}
,{"type": "Feature", "geometry": {"type": "Point", "coordinates": [120.541373, 31.357769]}, "properties": {"id": 461, "name": "\u661f\u5149\u8000\u82b1\u56ed", "capacity": 30, "surrounding": "\u5546\u52a1\u4f4f\u5b85", "district": "\u59d1\u82cf\u533a", "township": "\u767d\u6d0b\u6e7e\u8857\u9053", "address": "\u864e\u6c60\u8def\u661f\u5149\u80001\u671f"}}
,{"type": "Feature", "geometry": {"type": "Point", "coordinates": [120.555142, 31.343222]}, "properties": {"id": 462, "name": "\u864e\u6c60\u82d1", "capacity": 28, "surrounding": "\u5546\u52a1\u4f4f\u5b85", "district": "\u59d1\u82cf\u533a", "township": "\u767d\u6d0b\u6e7e\u8857\u9053", "address": "\u864e\u6c60\u8def\u864e\u6c60\u82d1\u5317\u95e8"}}
,{"type": "Feature", "geometry": {"type": "Point", "coordinates": [120.561289, 31.349943]}, "properties": {"id": 463, "name": "\u91d1\u960a\u65b0\u57ce\u793c\u54c1\u57ce", "capacity": 30, "surrounding": "\u8d2d\u7269\u670d\u52a1", "district": "\u59d1\u82cf\u533a", "township": "\u767d\u6d0b\u6e7e\u8857\u9053", "address": "\u91d1\u4e1a\u8857\u82cf\u5dde\u793c\u54c1\u5546\u54c1\u57ce"}}
,{"type": "Feature", "geometry": {"type": "Point", "coordinates": [120.648474, 31.320689]}, "properties": {"id": 501, "name": "\u4e1c\u6e2f\u4e8c\u6751\u5317\u95e8", "capacity": 38, "surrounding": "\u9910\u996e\u670d\u52a1", "district": "\u5434\u4e2d\u533a", "township": "[]", "address": "\u4e1c\u73af\u8def\u73b0\u4ee3\u5927\u9053"}}
,{"type": "Feature", "geometry": {"type": "Point", "coordinates": [120.65273, 31.321254]}, "properties": {"id": 502, "name": "\u5370\u8c61\u57ce\u8d2d\u7269\u4e2d\u5fc3\u5317", "capacity": 44, "surrounding": "\u9910\u996e\u670d\u52a1", "district": "\u5434\u4e2d\u533a", "township": "[]", "address": "\u5927\uff1a\u73b0\u4ee3\u5927\u9053\u5357\u4fa7\uff08S227\u7701\u9053\u4e1c\uff09"}}
,{"type": "Feature", "geometry": {"type": "Point", "coordinates": [120.657476, 31.312612]}, "properties": {"id": 503, "name": "\u65b0\u99a8\u82b1\u56ed\u4e1c\u95e8", "capacity": 26, "surrounding": "\u5730\u540d\u5730\u5740\u4fe1\u606f", "district": "\u5434\u4e2d\u533a", "township": "[]", "address": "\u661f\u660e\u8857\u897f\u4fa7\uff08\u82cf\u60e0\u8def\u5357\uff09"}}
,{"type": "Feature", "geometry": {"type": "Point", "coordinates": [120.656086, 31.318664]}, "properties": {"id": 504, "name": "\u8d35\u90fd\u82b1\u56ed\u4e1c\u95e8", "capacity": 32, "surrounding": "\u79d1\u6559\u6587\u5316\u670d\u52a1", "district": "\u5434\u4e2d\u533a", "township": "[]", "address": "\u661f\u660e\u8857\u4e0e\u82cf\u7ee3\u8def\u4ea4\u53c9\u53e3"}}
,{"type": "Feature", "geometry": {"type": "Point", "coordinates": [120.661241, 31.318811]}, "properties": {"id": 505, "name": "\u5929\u8679\u5546\u4e1a\u5e7f\u573a", "capacity": 30, "surrounding": "\u9910\u996e\u670d\u52a1", "district": "\u5434\u4e2d\u533a", "township": "[]", "address": "\u5927\uff1a\u82cf\u7ee3\u8def\u5357\u4fa7\uff08\u661f\u90fd\u8857\u897f\uff09\uff08\u5e38\u7535\uff09"}}
,{"type": "Feature", "geometry": {"type": "Point", "coordinates": [120.658463, 31.318647]}, "properties": {"id": 506, "name": "\u90fd\u5e02\u82b1\u56ed\u5357\u95e8", "capacity": 24, "surrounding": "\u79d1\u6559\u6587\u5316\u670d\u52a1", "district": "\u5434\u4e2d\u533a", "township": "[]", "address": "\u82cf\u7ee3\u8def\u5317\u4fa7\uff08\u661f\u5170\u8857\u53e3\uff09"}}
,{"type": "Feature", "geometry": {"type": "Point", "coordinates": [120.660492, 31.322819]}, "properties": {"id": 507, "name": "\u65b0\u57ce\u82b1\u56ed\u5357\u95e8", "capacity": 30, "surrounding": "\u79d1\u6559\u6587\u5316\u670d\u52a1", "district": "\u5434\u4e2d\u533a", "township": "[]", "address": "\u73b0\u4ee3\u5927\u9053\u5317\u4fa7\uff08\u661f\u90fd\u8857\u897f\uff09"}}
,{"type": "Feature", "geometry": {"type": "Point", "coordinates": [120.66386, 31.323326]}, "properties": {"id": 508, "name": "\u65b0\u57ce\u90bb\u91cc\u4e2d\u5fc3\u5357", "capacity": 40, "surrounding": "\u79d1\u6559\u6587\u5316\u670d\u52a1", "district": "\u5434\u4e2d\u533a", "township": "[]", "address": "\u73b0\u4ee3\u5927\u9053\u5317\u4fa7\uff08\u661f\u6d77\u8857\u897f\uff09"}}
,{"type": "Feature", "geometry": {"type": "Point", "coordinates": [120.6658, 31.322307]}, "properties": {"id": 509, "name": "\u661f\u6d77\u6e38\u6cf3\u9986", "capacity": 40, "surrounding": "\u79d1\u6559\u6587\u5316\u670d\u52a1", "district": "\u5434\u4e2d\u533a", "township": "[]", "address": "\u661f\u6d77\u8857\u73b0\u4ee3\u5927\u9053\u4e1c\u5357"}}
,{"type": "Feature", "geometry": {"type": "Point", "coordinates": [120.669068, 31.324163]}, "properties": {"id": 510, "name": "\u65b0\u52a0\u82b1\u56ed\u5357\u95e8", "capacity": 40, "surrounding": "\u5546\u52a1\u4f4f\u5b85", "district": "\u5434\u4e2d\u533a", "township": "[]", "address": "\u73b0\u4ee3\u5927\u9053\u5317\u4fa7\uff08\u661f\u6c49\u8857\u53e3\uff09"}}
,{"type": "Feature", "geometry": {"type": "Point", "coordinates": [120.675153, 31.322073]}, "properties": {"id": 512, "name": "\u4e2d\u8335\u7687\u51a0\u9152\u5e97", "capacity": 20, "surrounding": "\u5546\u52a1\u4f4f\u5b85", "district": "\u5434\u4e2d\u533a", "township": "[]", "address": "\u9999\u6a1f\u56ed\u5317\u4e00\u652f\u8def\u5317\u4fa7"}}
,{"type": "Feature", "geometry": {"type": "Point", "coordinates": [120.662824, 31.313807]}, "properties": {"id": 513, "name": "\u5e08\u60e0\u574a", "capacity": 30, "surrounding": "\u79d1\u6559\u6587\u5316\u670d\u52a1", "district": "\u5434\u4e2d\u533a", "township": "[]", "address": "\u661f\u90fd\u8857\u4e1c\u4fa7\uff08\u82cf\u60e0\u8def\u5357\uff09"}}
,{"type": "Feature", "geometry": {"type": "Point", "coordinates": [120.663029, 31.311528]}, "properties": {"id": 514, "name": "\u75be\u75c5\u9632\u6cbb\u4e2d\u5fc3\u4e1c", "capacity": 30, "surrounding": "\u79d1\u6559\u6587\u5316\u670d\u52a1", "district": "\u5434\u4e2d\u533a", "township": "[]", "address": "\u82cf\u831c\u8def\u5317\u4fa7(\u661f\u90fd\u8857\u897f)"}}
,{"type": "Feature", "geometry": {"type": "Point", "coordinates": [120.6679, 31.309529]}, "properties": {"id": 515, "name": "\u52a0\u57ce\u82b1\u56ed\u897f\u95e8", "capacity": 38, "surrounding": "\u79d1\u6559\u6587\u5316\u670d\u52a1", "district": "\u5434\u4e2d\u533a", "township": "[]", "address": "\u5927\uff1a\u661f\u6d77\u8857\u4e1c\u4fa7\uff08\u91d1\u9e21\u6e56\u8def\u5317\uff09"}}
,{"type": "Feature", "geometry": {"type": "Point", "coordinates": [120.667956, 31.311971]}, "properties": {"id": 516, "name": "\u661f\u6d77\u516c\u56ed\u897f", "capacity": 38, "surrounding": "\u79d1\u6559\u6587\u5316\u670d\u52a1", "district": "\u5434\u4e2d\u533a", "township": "[]", "address": "\u661f\u6d77\u8857\u4e1c\u4fa7(\u82cf\u831c\u8def\u5317)\uff08\u5e38\u7535\uff09"}}
,{"type": "Feature", "geometry": {"type": "Point", "coordinates": [120.670215, 31.316052]}, "properties": {"id": 517, "name": "\u5de6\u5cb8\u5546\u4e1a\u8857A\u533a", "capacity": 20, "surrounding": "\u91d1\u878d\u4fdd\u9669\u670d\u52a1", "district": "\u5434\u4e2d\u533a", "township": "[]", "address": "\u6613\u6295\u8bc9\uff1a\u82cf\u60e0\u8def\u661f\u539f\u8857\u897f\u5317"}}
,{"type": "Feature", "geometry": {"type": "Point", "coordinates": [120.671591, 31.309875]}, "properties": {"id": 518, "name": "\u5609\u6021\u82d1\u897f\u95e8", "capacity": 30, "surrounding": "\u5546\u52a1\u4f4f\u5b85", "district": "\u5434\u4e2d\u533a", "township": "[]", "address": "\u661f\u6c49\u8857\u4e1c\u4fa7\uff08\u91d1\u9e21\u6e56\u8def\u5317\uff09"}}
,{"type": "Feature", "geometry": {"type": "Point", "coordinates": [120.661312, 31.321448]}, "properties": {"id": 519, "name": "\u90fd\u5e02\u82b1\u56ed\u897f\u95e8", "capacity": 36, "surrounding": "\u5546\u52a1\u4f4f\u5b85", "district": "\u5434\u4e2d\u533a", "township": "[]", "address": "\u661f\u90fd\u8857\u4e1c\u4fa7\uff08\u73b0\u4ee3\u5927\u9053\u5357\uff09"}}
,{"type": "Feature", "geometry": {"type": "Point", "coordinates": [120.668186, 31.317976]}, "properties": {"id": 520, "name": "\u4e2d\u56fd\u94f6\u884c\u56ed\u533a\u652f\u884c", "capacity": 32, "surrounding": "\u5546\u52a1\u4f4f\u5b85", "district": "\u5434\u4e2d\u533a", "township": "[]", "address": "\u82cf\u5dde\u5927\u9053\u897f\u5317\u4fa7"}}
,{"type": "Feature", "geometry": {"type": "Point", "coordinates": [120.720884, 31.315907]}, "properties": {"id": 521, "name": "\u67ab\u60c5\u6c34\u5cb8\u5357\u95e8", "capacity": 30, "surrounding": "\u79d1\u6559\u6587\u5316\u670d\u52a1", "district": "\u5434\u4e2d\u533a", "township": "[]", "address": "\u5929\u5b9d\u8857\u548c\u4f1a\u5fc3\u8857\u4ea4\u754c\u5904"}}
,{"type": "Feature", "geometry": {"type": "Point", "coordinates": [120.723038, 31.313041]}, "properties": {"id": 522, "name": "\u4e1c\u6e56\u5927\u90e1\u4e00\u671f\u4e1c", "capacity": 40, "surrounding": "\u79d1\u6559\u6587\u5316\u670d\u52a1", "district": "\u5434\u4e2d\u533a", "township": "[]", "address": "\u957f\u4e50\u8857\u548c\u4f1a\u5fc3\u8857\u4ea4\u754c\u5904"}}
,{"type": "Feature", "geometry": {"type": "Point", "coordinates": [120.710852, 31.318659]}, "properties": {"id": 523, "name": "\u6469\u5929\u8f6e\u516c\u56ed", "capacity": 30, "surrounding": "\u9910\u996e\u670d\u52a1", "district": "\u5434\u4e2d\u533a", "township": "[]", "address": "\u666f\u533a\uff1a\u9526\u878d\u8857\u548c\u949f\u56ed\u8def\u4ea4\u754c\u5904"}}
,{"type": "Feature", "geometry": {"type": "Point", "coordinates": [120.695715, 31.33183]}, "properties": {"id": 524, "name": "\u73b2\u73d1\u90bb\u91cc\u4e2d\u5fc3", "capacity": 28, "surrounding": "\u79d1\u6559\u6587\u5316\u670d\u52a1", "district": "\u5434\u4e2d\u533a", "township": "[]", "address": "\u73b2\u73d1\u8857\u548c\u6c88\u6d52\u8def\u4ea4\u754c\u5904"}}
,{"type": "Feature", "geometry": {"type": "Point", "coordinates": [120.699398, 31.331557]}, "properties": {"id": 525, "name": "\u4e2d\u6d77\u6e56\u6ee8\u4e00\u53f7", "capacity": 30, "surrounding": "\u79d1\u6559\u6587\u5316\u670d\u52a1", "district": "\u5434\u4e2d\u533a", "township": "[]", "address": "\u6c88\u6d52\u8def\u5357\u4fa7\uff08\u73b2\u73d1\u8857\u4e1c\uff09"}}
,{"type": "Feature", "geometry": {"type": "Point", "coordinates": [120.72178, 31.331056]}, "properties": {"id": 526, "name": "\u4e5d\u9f99\u533b\u9662\u897f", "capacity": 30, "surrounding": "\u79d1\u6559\u6587\u5316\u670d\u52a1", "district": "\u5434\u4e2d\u533a", "township": "[]", "address": "\u4e07\u76db\u8857\u4e1c\u4fa7\uff08\u4e5d\u534e\u8def\u5317\uff09"}}
,{"type": "Feature", "geometry": {"type": "Point", "coordinates": [120.72874, 31.329451]}, "properties": {"id": 527, "name": "\u9752\u5c11\u5e74\u6d3b\u52a8\u4e2d\u5fc3\u897f", "capacity": 30, "surrounding": "\u5546\u52a1\u4f4f\u5b85", "district": "\u5434\u4e2d\u533a", "township": "[]", "address": "\u5357\u65bd\u8857\u4e1c\u4fa7\uff08\u73b0\u4ee3\u5927\u9053\u5317\uff09"}}
,{"type": "Feature", "geometry": {"type": "Point", "coordinates": [120.71358, 31.329386]}, "properties": {"id": 528, "name": "\u4e2d\u6d77\u661f\u6e56\u56fd\u9645\u5317\u95e8", "capacity": 30, "surrounding": "\u79d1\u6559\u6587\u5316\u670d\u52a1", "district": "\u5434\u4e2d\u533a", "township": "[]", "address": "\u4e5d\u534e\u8def\u5317\u4fa7\uff08\u661f\u6e56\u8857\u897f\uff09-\u5e38\u7535"}}
,{"type": "Feature", "geometry": {"type": "Point", "coordinates": [120.674596, 31.327979]}, "properties": {"id": 529, "name": "\u6e56\u7554\u82b1\u56ed\u897f\u95e8", "capacity": 28, "surrounding": "\u5546\u52a1\u4f4f\u5b85", "district": "\u5434\u4e2d\u533a", "township": "[]", "address": "\u661f\u6e2f\u8857\u4e1c\u4fa7\uff08\u73b0\u4ee3\u5927\u9053\u5317\uff09"}}
,{"type": "Feature", "geometry": {"type": "Point", "coordinates": [120.679086, 31.308037]}, "properties": {"id": 531, "name": "\u98ce\u4e4b\u56ed", "capacity": 40, "surrounding": "\u5730\u540d\u5730\u5740\u4fe1\u606f", "district": "\u5434\u4e2d\u533a", "township": "[]", "address": "\u666f\u533a\uff1a\u661f\u5dde\u8857\u91d1\u9e21\u6e56\u8def\u4e1c\u5317"}}
,{"type": "Feature", "geometry": {"type": "Point", "coordinates": [120.644115, 31.320633]}, "properties": {"id": 532, "name": "\u767e\u6da6\u53d1\u8d85\u5e02", "capacity": 30, "surrounding": "\u79d1\u6559\u6587\u5316\u670d\u52a1", "district": "\u5434\u4e2d\u533a", "township": "[]", "address": "\u4e1c\u73af\u8def\u73b0\u4ee3\u5927\u9053\u767e\u6da6\u53d1\u8d85\u5e02"}}
,{"type": "Feature", "geometry": {"type": "Point", "coordinates": [120.717207, 31.325412]}, "properties": {"id": 533, "name": "\u884c\u653f\u670d\u52a1\u4e2d\u5fc3\u897f", "capacity": 36, "surrounding": "\u5546\u52a1\u4f4f\u5b85", "district": "\u5434\u4e2d\u533a", "township": "[]", "address": "\u653f\u5e9c\uff1a\u661f\u6e56\u8857\u4e1c\u4fa7\u8f68\u9053\u7ad9\u70b9\u9644\u8fd1-\u5e38\u7535"}}
,{"type": "Feature", "geometry": {"type": "Point", "coordinates": [120.722032, 31.301399]}, "properties": {"id": 534, "name": "\u6a44\u6984\u6e7e\u897f\u95e8", "capacity": 30, "surrounding": "\u79d1\u6559\u6587\u5316\u670d\u52a1", "district": "\u5434\u4e2d\u533a", "township": "[]", "address": "\u661f\u6e56\u8857\u4e1c\u4fa7\uff08\u6dde\u6c5f\u8def\u5317\uff09"}}
,{"type": "Feature", "geometry": {"type": "Point", "coordinates": [120.734857, 31.3085]}, "properties": {"id": 535, "name": "\u6fb3\u97f5\u82b1\u56ed\u5357\u95e8", "capacity": 30, "surrounding": "\u9910\u996e\u670d\u52a1", "district": "\u5434\u4e2d\u533a", "township": "[]", "address": "\u743c\u59ec\u8def\u5317\u4fa7\uff08\u6d25\u6881\u8857\u897f\u7b2c\u4e00\u4e2a\u95e8\u53e3\uff09"}}
,{"type": "Feature", "geometry": {"type": "Point", "coordinates": [120.733684, 31.317776]}, "properties": {"id": 536, "name": "\u6e56\u7554\u5929\u57ce\u5357", "capacity": 30, "surrounding": "\u79d1\u6559\u6587\u5316\u670d\u52a1", "district": "\u5434\u4e2d\u533a", "township": "[]", "address": "\u949f\u6167\u8def\u5317\u4fa7\uff08\u5c0f\u533a\u5357\u95e8\u5165\u53e3\uff09"}}
,{"type": "Feature", "geometry": {"type": "Point", "coordinates": [120.679402, 31.313378]}, "properties": {"id": 537, "name": "\u519c\u5386\u5e7f\u573a", "capacity": 30, "surrounding": "\u5546\u52a1\u4f4f\u5b85", "district": "\u5434\u4e2d\u533a", "township": "[]", "address": "\u666f\u533a\uff1a\u661f\u5dde\u8857\u4e1c\u4fa7"}}
,{"type": "Feature", "geometry": {"type": "Point", "coordinates": [120.680504, 31.304202]}, "properties": {"id": 538, "name": "\u674e\u516c\u5824\u5165\u53e3", "capacity": 34, "surrounding": "\u9910\u996e\u670d\u52a1", "district": "\u5434\u4e2d\u533a", "township": "[]", "address": "\u666f\u533a\uff1a\u674e\u516c\u5824\u5165\u53e3\u666f\u89c2\u94fa\u5730"}}
,{"type": "Feature", "geometry": {"type": "Point", "coordinates": [120.690123, 31.304506]}, "properties": {"id": 539, "name": "\u674e\u516c\u5824\u4e2d\u6bb5", "capacity": 20, "surrounding": "\u5730\u540d\u5730\u5740\u4fe1\u606f", "district": "\u5434\u4e2d\u533a", "township": "[]", "address": "\u666f\u533a\uff1a\u91d1\u9e21\u6e56\u666f\u533a\u6e38\u5ba2\u4e2d\u5fc3\u897f"}}
,{"type": "Feature", "geometry": {"type": "Point", "coordinates": [120.724416, 31.31677]}, "properties": {"id": 541, "name": "\u6e56\u4e1c\u90bb\u91cc\u4e2d\u5fc3\u5317", "capacity": 38, "surrounding": "\u79d1\u6559\u6587\u5316\u670d\u52a1", "district": "\u5434\u4e2d\u533a", "township": "[]", "address": "\u90bb\u91cc\u751f\u9c9c\u83dc\u573a\u5317"}}
,{"type": "Feature", "geometry": {"type": "Point", "coordinates": [120.654823, 31.322024]}, "properties": {"id": 542, "name": "\u4e1c\u65b9\u82b1\u56ed\u5357\u95e8", "capacity": 38, "surrounding": "\u9910\u996e\u670d\u52a1", "district": "\u5434\u4e2d\u533a", "township": "[]", "address": "\u73b0\u4ee3\u5927\u9053\u5317\u4fa7\uff08\u661f\u660e\u8857\u897f\uff09"}}
,{"type": "Feature", "geometry": {"type": "Point", "coordinates": [120.663711, 31.298262]}, "properties": {"id": 543, "name": "\u56fd\u9645\u79d1\u6280\u56ed\u897f", "capacity": 36, "surrounding": "\u5546\u52a1\u4f4f\u5b85", "district": "\u5434\u4e2d\u533a", "township": "[]", "address": "\u65e9\u665a\u5927\uff1a\u91d1\u9e21\u6e56\u5927\u9053\u5357\u4fa7\uff08\u901a\u56ed\u8def\u4e1c\uff09"}}
,{"type": "Feature", "geometry": {"type": "Point", "coordinates": [120.659428, 31.316688]}, "properties": {"id": 544, "name": "\u4e2d\u592e\u516c\u56ed\u4e1c\u95e8", "capacity": 40, "surrounding": "\u79d1\u6559\u6587\u5316\u670d\u52a1", "district": "\u5434\u4e2d\u533a", "township": "[]", "address": "\u661f\u5170\u8857\u897f\u4fa7"}}
,{"type": "Feature", "geometry": {"type": "Point", "coordinates": [120.664749, 31.315314]}, "properties": {"id": 545, "name": "\u56fd\u68c0\u5927\u53a6", "capacity": 38, "surrounding": "\u5546\u52a1\u4f4f\u5b85", "district": "\u5434\u4e2d\u533a", "township": "[]", "address": "\u661f\u6842\u8857\u82cf\u60e0\u8def\u897f\u5317"}}
,{"type": "Feature", "geometry": {"type": "Point", "coordinates": [120.669856, 31.319942]}, "properties": {"id": 546, "name": "\u56fd\u9645\u5927\u53a6\u5317", "capacity": 34, "surrounding": "\u5546\u52a1\u4f4f\u5b85", "district": "\u5434\u4e2d\u533a", "township": "[]", "address": "\u661f\u9633\u8857\u4e1c\u4fa7"}}
,{"type": "Feature", "geometry": {"type": "Point", "coordinates": [120.676728, 31.32739]}, "properties": {"id": 548, "name": "\u6c81\u82d1\u5c0f\u533a\u5317", "capacity": 30, "surrounding": "\u5546\u52a1\u4f4f\u5b85", "district": "\u5434\u4e2d\u533a", "township": "[]", "address": "\u76d1\u7ba1\uff1a\u73b0\u4ee3\u5927\u9053\u4e0e\u6c81\u56ed\u5df7\u4ea4\u53c9\u53e3"}}
,{"type": "Feature", "geometry": {"type": "Point", "coordinates": [120.681845, 31.296412]}, "properties": {"id": 549, "name": "\u9ad8\u5c14\u592b\u82b1\u56ed\u897f\u95e8", "capacity": 40, "surrounding": "\u79d1\u6559\u6587\u5316\u670d\u52a1", "district": "\u5434\u4e2d\u533a", "township": "[]", "address": "\u661f\u6ce2\u8857\u4e1c\u4fa7\uff08\u9ad8\u548c\u8def\u5317\uff09"}}
,{"type": "Feature", "geometry": {"type": "Point", "coordinates": [120.715901, 31.311029]}, "properties": {"id": 550, "name": "\u91d1\u59ec\u58a9\u516c\u56ed\u5317", "capacity": 34, "surrounding": "\u5546\u52a1\u4f4f\u5b85", "district": "\u5434\u4e2d\u533a", "township": "[]", "address": "\u743c\u59ec\u58a9\u8def\u5357\u4fa7\uff08\u661f\u6e56\u8857\u897f\uff09"}}
,{"type": "Feature", "geometry": {"type": "Point", "coordinates": [120.728848, 31.319185]}, "properties": {"id": 551, "name": "\u4e1c\u57ce\u90e1\u4e1c\u95e8", "capacity": 25, "surrounding": "\u5546\u52a1\u4f4f\u5b85", "district": "\u5434\u4e2d\u533a", "township": "[]", "address": "\u6613\u6295\u8bc9\uff1a\u5357\u65bd\u8857\u897f\u4fa7\uff08\u91d1\u5854\u8def\u5317\uff09"}}
,{"type": "Feature", "geometry": {"type": "Point", "coordinates": [120.729197, 31.318846]}, "properties": {"id": 552, "name": "\u91d1\u6e56\u6e7e\u897f\u95e8\u5357", "capacity": 42, "surrounding": "\u79d1\u6559\u6587\u5316\u670d\u52a1", "district": "\u5434\u4e2d\u533a", "township": "[]", "address": "\u5357\u65bd\u8857\u4e1c\u4fa7\uff08\u949f\u56ed\u8def\u5357\uff09"}}
,{"type": "Feature", "geometry": {"type": "Point", "coordinates": [120.736346, 31.320842]}, "properties": {"id": 553, "name": "\u81ea\u7531\u6c34\u5cb8\u82b1\u56ed\u897f\u95e8", "capacity": 30, "surrounding": "\u9910\u996e\u670d\u52a1", "district": "\u5434\u4e2d\u533a", "township": "[]", "address": "\u6d25\u6881\u8857\u4e1c\u4fa7\uff08\u949f\u56ed\u8def\u5357\uff09"}}
,{"type": "Feature", "geometry": {"type": "Point", "coordinates": [120.671045, 31.314447]}, "properties": {"id": 554, "name": "\u6e56\u5de6\u5cb8\u897f\u95e8", "capacity": 34, "surrounding": "\u5546\u52a1\u4f4f\u5b85", "district": "\u5434\u4e2d\u533a", "township": "[]", "address": "\u661f\u6c49\u8857\u4e1c\u4fa7\uff08\u82cf\u60e0\u8def\u5357\uff09"}}
,{"type": "Feature", "geometry": {"type": "Point", "coordinates": [120.699944, 31.326499]}, "properties": {"id": 555, "name": "\u7ea2\u67ab\u6797\u516c\u56ed\u4e1c", "capacity": 30, "surrounding": "\u79d1\u6559\u6587\u5316\u670d\u52a1", "district": "\u5434\u4e2d\u533a", "township": "[]", "address": "\u89c2\u67ab\u8857\u897f\u4fa7\uff08\u7fe0\u56ed\u8def\u6bd4\uff09"}}
,{"type": "Feature", "geometry": {"type": "Point", "coordinates": [120.720029, 31.311293]}, "properties": {"id": 556, "name": "\u4e2d\u5858\u516c\u56ed\u897f", "capacity": 38, "surrounding": "\u5546\u52a1\u4f4f\u5b85", "district": "\u5434\u4e2d\u533a", "township": "[]", "address": "\u76d1\u7ba1\uff1a\u661f\u6e56\u8857\u4e1c\u4fa7\uff08\u82cf\u80dc\u8def\u5317\uff09"}}
,{"type": "Feature", "geometry": {"type": "Point", "coordinates": [120.720412, 31.322184]}, "properties": {"id": 557, "name": "\u4eba\u529b\u8d44\u6e90\u5e02\u573a\u5357", "capacity": 30, "surrounding": "\u5546\u52a1\u4f4f\u5b85", "district": "\u5434\u4e2d\u533a", "township": "[]", "address": "\u653f\u5e9c\uff1a\u65fa\u58a9\u8def\u5317\u4fa7"}}
,{"type": "Feature", "geometry": {"type": "Point", "coordinates": [120.72189, 31.32543]}, "properties": {"id": 558, "name": "\u56ed\u533a\u884c\u653f\u4e2d\u5fc3\u4e1c", "capacity": 40, "surrounding": "\u5546\u52a1\u4f4f\u5b85", "district": "\u5434\u4e2d\u533a", "township": "[]", "address": "\u653f\u5e9c\uff1a\u4e07\u76db\u8857\u897f\u4fa7\uff08\u7fe0\u56ed\u8def\u5357\uff09"}}
,{"type": "Feature", "geometry": {"type": "Point", "coordinates": [120.723716, 31.307661]}, "properties": {"id": 559, "name": "\u5fb7\u9091\u897f\u95e8\u5317", "capacity": 38, "surrounding": "\u5546\u52a1\u4f4f\u5b85", "district": "\u5434\u4e2d\u533a", "township": "[]", "address": "\u957f\u4e50\u8857\u4e1c\u4fa7\uff08\u743c\u59ec\u8def\u5357\uff09"}}
,{"type": "Feature", "geometry": {"type": "Point", "coordinates": [120.729274, 31.309446]}, "properties": {"id": 560, "name": "\u4f0a\u987f\u5c0f\u9547\u4e1c\u95e8\u5317", "capacity": 40, "surrounding": "\u5546\u52a1\u4f4f\u5b85", "district": "\u5434\u4e2d\u533a", "township": "[]", "address": "\u5357\u65bd\u8857\u897f\u4fa7\uff08\u743c\u59ec\u8def\u5317\uff09"}}
,{"type": "Feature", "geometry": {"type": "Point", "coordinates": [120.72915, 31.313175]}, "properties": {"id": 561, "name": "\u4e1c\u6e56\u5927\u90e1\u4e8c\u671f\u4e1c\u95e8", "capacity": 25, "surrounding": "\u9910\u996e\u670d\u52a1", "district": "\u5434\u4e2d\u533a", "township": "[]", "address": "\u5357\u65bd\u8857\u897f\u4fa7\uff08\u65b9\u6d32\u8def\u5357\uff09"}}
,{"type": "Feature", "geometry": {"type": "Point", "coordinates": [120.731503, 31.314546]}, "properties": {"id": 562, "name": "\u6b27\u5178\u82b1\u56ed\u5317\u95e8\u897f", "capacity": 30, "surrounding": "\u79d1\u6559\u6587\u5316\u670d\u52a1", "district": "\u5434\u4e2d\u533a", "township": "[]", "address": "\u65b9\u6d32\u652f\u8def\u5357\u4fa7\u5357\u65bd\u8857\u4e1c"}}
,{"type": "Feature", "geometry": {"type": "Point", "coordinates": [120.737078, 31.315799]}, "properties": {"id": 563, "name": "\u65b9\u6d32\u90bb\u91cc\u4e2d\u5fc3\u5357", "capacity": 30, "surrounding": "\u9910\u996e\u670d\u52a1", "district": "\u5434\u4e2d\u533a", "township": "[]", "address": "\u65b9\u6d32\u8def\u5317\u4fa7\uff08\u6d25\u6881\u8857\u4e1c\uff09"}}
,{"type": "Feature", "geometry": {"type": "Point", "coordinates": [120.741044, 31.31922]}, "properties": {"id": 564, "name": "\u65b9\u6d32\u516c\u56ed\u5317", "capacity": 29, "surrounding": "\u5546\u52a1\u4f4f\u5b85", "district": "\u5434\u4e2d\u533a", "township": "[]", "address": "\u5146\u4f73\u5df7\u5357\u4fa7\uff08\u661f\u5858\u8857\u4e1c\uff09"}}
,{"type": "Feature", "geometry": {"type": "Point", "coordinates": [120.653633, 31.307016]}, "properties": {"id": 565, "name": "\u6b27\u5c1a\u8d85\u5e02\u897f", "capacity": 30, "surrounding": "\u9910\u996e\u670d\u52a1", "district": "\u5434\u4e2d\u533a", "township": "[]", "address": "\u5927\uff1aS227\u7701\u9053\u4e1c\u4fa7\uff08\u91d1\u9e21\u6e56\u8def\u5357\uff09"}}
,{"type": "Feature", "geometry": {"type": "Point", "coordinates": [120.707668, 31.320693]}, "properties": {"id": 566, "name": "\u5706\u878d\u65f6\u4ee3\u5e7f\u573a\u5357", "capacity": 32, "surrounding": "\u9910\u996e\u670d\u52a1", "district": "\u5434\u4e2d\u533a", "township": "[]", "address": "\u5927\uff1a\u65fa\u58a9\u8def\u5317\u4fa7\uff08\u534e\u6c60\u8857\u897f\uff09"}}
,{"type": "Feature", "geometry": {"type": "Point", "coordinates": [120.74105, 31.322512]}, "properties": {"id": 567, "name": "\u4e2d\u6d77\u56fd\u9645\u793e\u533a\u4e03\u533a", "capacity": 46, "surrounding": "\u5546\u52a1\u4f4f\u5b85", "district": "\u5434\u4e2d\u533a", "township": "[]", "address": "\u949f\u56ed\u8def\u5317\u4fa7\uff08\u661f\u5858\u8857\u4e1c\uff09"}}
,{"type": "Feature", "geometry": {"type": "Point", "coordinates": [120.717868, 31.29094]}, "properties": {"id": 568, "name": "\u6c34\u58a8\u6c5f\u5357\u4e1c\u95e8", "capacity": 18, "surrounding": "\u79d1\u6559\u6587\u5316\u670d\u52a1", "district": "\u5434\u4e2d\u533a", "township": "[]", "address": "\u4e1c\u534e\u6797\u8857\u897f\u4fa7\uff08\u4e1c\u5ef6\u8def\u5317\u7b2c\u4e8c\u4e2a\u95e8\u53e3\uff09"}}
,{"type": "Feature", "geometry": {"type": "Point", "coordinates": [120.647553, 31.320856]}, "properties": {"id": 569, "name": "\u4e1c\u6e2f\u65b0\u6751\u5357\u95e8", "capacity": 40, "surrounding": "\u5546\u52a1\u4f4f\u5b85", "district": "\u5434\u4e2d\u533a", "township": "[]", "address": "\u73b0\u4ee3\u5927\u9053\u5317\u4fa7"}}
,{"type": "Feature", "geometry": {"type": "Point", "coordinates": [120.677465, 31.296122]}, "properties": {"id": 570, "name": "\u5927\u6e56\u57ce\u90a6\u897f\u95e8", "capacity": 40, "surrounding": "\u79d1\u6559\u6587\u5316\u670d\u52a1", "district": "\u5434\u4e2d\u533a", "township": "[]", "address": "\u661f\u5dde\u8857\u4e1c\u4fa7\uff08\u9ad8\u548c\u8def\u5317\uff09"}}
,{"type": "Feature", "geometry": {"type": "Point", "coordinates": [120.668006, 31.298271]},