id,lat,lng,name,surrounding,district,township,x,y,tradenum
1,31.320318682000647,120.63765297556955,东园,商务住宅,姑苏区,平江街道,14.288042,-4.0014586,87477.0
2,31.32234071740903,120.6266050040201,西北街口,风景名胜,姑苏区,观前街道,18.285002,-22.422544,143012.0
3,31.32691513689977,120.61451895776474,平四路,住宿服务,姑苏区,桃花坞街道,8.162989,6.4862657,41520.0
4,31.299301692660713,120.64510995114466,葑门路口,医疗保健服务,姑苏区,葑门街道,30.935959,-1.8689044,196321.0
6,31.308741846962327,120.6305160510211,和基广场,科教文化服务,姑苏区,平江街道,43.232853,8.965187,174099.0
7,31.317814454146447,120.62456903318257,中国邮政,商务住宅,姑苏区,观前街道,23.751066,32.927284,155276.0
8,31.310576775199,120.62947005104807,观前街（东）,科教文化服务,姑苏区,观前街道,33.89344,19.802076,288627.0
9,31.330808263542426,120.60988990327026,火车站长途楼,交通设施服务,姑苏区,苏锦街道,22.930006,-16.638346,81414.0
10,31.29654410615701,120.5818956367902,三香路家乐福,医疗保健服务,姑苏区,金阊街道,35.423622,30.090874,197233.0
11,31.2956697318014,120.59262170261242,新沧花园,科教文化服务,姑苏区,胥江街道,-5.93632,22.112663,52171.0
12,31.27865899368825,120.62000136719999,龙港花苑,商务住宅,姑苏区,吴门桥街道,13.798147,30.906647,116999.0
13,31.30636698789605,120.6323500421118,定慧寺巷,餐饮服务,姑苏区,双塔街道,2.8695858,5.422683,124989.0
14,31.28128025140514,120.60795034711556,沧浪区市民中心,政府机构及社会团体,姑苏区,吴门桥街道,15.8300085,38.426353,120152.0
15,31.297293086652,120.58607760923195,市政府,政府机构及社会团体,姑苏区,金阊街道,25.61476,30.157084,122606.0
16,31.299861053789602,120.6096730764872,三香路工商银行,商务住宅,姑苏区,胥江街道,7.872403,3.412319,83053.0
17,31.29331602941141,120.6341950078365,广电总台（停用）,商务住宅,姑苏区,双塔街道,22.652208,-33.406895,50566.0
18,31.30037687023723,120.61406914397965,市政设施处,科教文化服务,姑苏区,沧浪街道,0.47262692,0.12496862,58521.0
19,31.29834029930223,120.59693775780303,行政服务中心,科教文化服务,姑苏区,胥江街道,17.749855,38.740116,130673.0
20,31.301301309748112,120.62575813338616,江苏银行,科教文化服务,姑苏区,双塔街道,-23.889666,18.80876,86202.0
21,31.301486538267582,120.62831310278791,苏州日报社,科教文化服务,姑苏区,双塔街道,10.47821,34.633213,83477.0
22,31.299412621791447,120.60313391460852,环境监测中心站,政府机构及社会团体,姑苏区,胥江街道,28.215912,34.21886,137252.0
23,31.293225157978746,120.63568597887705,恒润大厦,商务住宅,姑苏区,沧浪街道,1.027269,32.821922,110640.0
24,31.31837578144428,120.62807601796641,白塔子桥,餐饮服务,姑苏区,观前街道,14.731782,16.303665,104086.0
25,31.285624150478114,120.58213675185922,市容市政管理局,商务住宅,姑苏区,友新街道,-40.87903,9.532956,35946.0
26,31.316536557794446,120.6037657375977,山塘街游客中心,风景名胜,姑苏区,虎丘街道,-15.4179945,-6.504076,40723.0
27,31.318195829692865,120.600844655093,新民桥南,风景名胜,姑苏区,虎丘街道,18.785778,2.5206437,84831.0
28,31.29888932984765,120.63732598187073,东吴饭店,科教文化服务,姑苏区,双塔街道,31.621967,10.987857,152781.0
29,31.30210183961288,120.63139706113192,沧浪区政府,商务住宅,姑苏区,双塔街道,28.771284,-9.802493,131773.0
30,31.31886516407818,120.63190299660174,平江路口,风景名胜,姑苏区,平江街道,-5.710501,50.89339,101821.0
31,31.31458162669391,120.59195149499256,留园,风景名胜,姑苏区,留园街道,14.877264,16.481716,71349.0
32,31.31569162578707,120.57679070576677,倪家苑,商务住宅,姑苏区,留园街道,3.4919884,20.582579,54608.0
33,31.317128435842122,120.57450279718364,新庄新村,商务住宅,姑苏区,留园街道,23.225367,10.031295,89932.0
34,31.32096127463197,120.57339385929642,新庄公交首末站,商务住宅,姑苏区,留园街道,-1.0682318,5.2244163,59052.0
35,31.310907197817357,120.57032994483451,寒山寺,风景名胜,姑苏区,金阊街道,19.968718,-22.196995,55999.0
36,31.30750485888707,120.57845264622244,三元二村,商务住宅,姑苏区,金阊街道,38.241432,6.5165234,142046.0
37,31.286438282145795,120.63741089780778,南园桥南堍,商务住宅,姑苏区,葑门街道,19.282152,7.196836,61854.0
38,31.28378929131249,120.63744287474272,25号小区,商务住宅,姑苏区,吴门桥街道,4.2535453,-19.470974,92855.0
40,31.280168076538505,120.63443993322494,南华公寓,商务住宅,姑苏区,吴门桥街道,37.65208,39.567394,139140.0
41,31.26625147527453,120.60668448148621,博雅苑,科教文化服务,姑苏区,友新街道,4.2319245,10.14394,75221.0
42,31.28252199568611,120.61181237805737,大润发,商务住宅,姑苏区,吴门桥街道,43.18698,29.68354,166118.0
43,31.288414927550892,120.61250330123742,盘景苑,商务住宅,姑苏区,沧浪街道,12.073525,-3.1915371,61199.0
44,31.304244314399124,120.60626592681452,阊胥路供电公司,科教文化服务,姑苏区,石路街道,25.427158,54.794872,121345.0
45,31.310534560121013,120.60362677665384,石路,科教文化服务,姑苏区,石路街道,19.860657,37.338,101866.0
46,31.309758025086268,120.61088597083723,黄鹂坊农贸市场,住宿服务,姑苏区,桃花坞街道,38.57735,35.76829,144288.0
47,31.316303998601885,120.61421597807914,中市桥,科教文化服务,姑苏区,桃花坞街道,35.36027,20.233404,143415.0
49,31.28914930316947,120.60676219370943,金桥新村,商务住宅,姑苏区,胥江街道,29.513863,1.0793271,99648.0
50,31.30328443470901,120.62696210956513,苏州公园,政府机构及社会团体,姑苏区,双塔街道,33.702248,43.55831,125769.0
51,31.300754862811623,120.61730716751137,会议中心,科教文化服务,姑苏区,沧浪街道,-23.302994,17.97974,64026.0
61,31.30784799748752,120.58408053102812,馨鸿花园,商务住宅,姑苏区,金阊街道,4.9565845,6.5661535,60357.0
62,31.30977199782024,120.59927866471813,新苏天地,餐饮服务,姑苏区,石路街道,40.7729,12.826694,132176.0
63,31.336782260523115,120.59580768861557,天筑家园西门,地名地址信息,姑苏区,城北街道,23.01861,24.584257,70558.0
64,31.33587025931831,120.5958126750028,大观名园北门,科教文化服务,姑苏区,城北街道,-6.4355702,28.433216,47560.0
65,31.34256928428857,120.59562978292931,平江新城管委会,科教文化服务,姑苏区,城北街道,19.819689,13.283154,72483.0
66,31.332218219709755,120.61210094847065,火车站北广场,交通设施服务,姑苏区,苏锦街道,25.27313,13.176159,116267.0
67,31.33726334694659,120.61788302455379,平江区政府,商务住宅,姑苏区,苏锦街道,4.1919537,6.401401,47147.0
68,31.329637310866858,120.61943299711555,汽车北站,商务住宅,姑苏区,苏锦街道,23.767782,-15.943201,85304.0
69,31.32116995758329,120.64695005430124,日规路天桥口,商务住宅,姑苏区,娄门街道,15.652353,20.953346,78320.0
70,31.30300658674057,120.6522300743368,苏大校区东大门,科教文化服务,姑苏区,葑门街道,33.554264,16.39268,164856.0
71,31.298066917265093,120.63264004553629,网师园,科教文化服务,姑苏区,双塔街道,40.852192,9.737475,143139.0
72,31.294813685374827,120.60268698287571,电力培训中心,商务住宅,姑苏区,胥江街道,7.931333,8.460506,61062.0
73,31.309230385340747,120.59540557929779,朱家庄新村,商务住宅,姑苏区,石路街道,14.003706,25.859121,75539.0
74,31.30809568385422,120.57571773111393,金阊区少年宫,商务住宅,姑苏区,金阊街道,9.381424,15.779465,72817.0
75,31.296475978881826,120.57826969244142,经贸大厦,政府机构及社会团体,姑苏区,金阊街道,12.769206,34.773415,97768.0
76,31.30120986541533,120.57705369923286,西环路站4号出口,科教文化服务,姑苏区,金阊街道,39.31079,36.429863,176637.0
77,31.30174793600036,120.57844066246649,西环路站3号出口,科教文化服务,姑苏区,金阊街道,26.978537,23.121595,176580.0
78,31.3021930662777,120.58433956535757,市行政中心北门,商务住宅,姑苏区,金阊街道,-17.490118,4.533536,30154.0
79,31.3027329966678,120.5873515513076,苏州广播电视大学,政府机构及社会团体,姑苏区,金阊街道,17.263853,0.43816534,52704.0
80,31.302903802434336,120.590976574172,桐泾北路站2号出,政府机构及社会团体,姑苏区,金阊街道,17.199726,31.93919,160163.0
81,31.302705904806572,120.58936156066092,桐泾北路站1号出,政府机构及社会团体,姑苏区,金阊街道,-3.2542772,17.433846,53796.0
82,31.30300965750608,120.59286460009459,彩香一村北门,政府机构及社会团体,姑苏区,石路街道,35.826576,7.4547944,133465.0
83,31.30405186161277,120.60074877344351,广济南路站4号出,餐饮服务,姑苏区,石路街道,25.527843,17.158604,163202.0
84,31.304882984369783,120.61118103524029,干将桥东北堍,政府机构及社会团体,姑苏区,桃花坞街道,8.80116,5.5951343,42162.0
85,31.304818895624066,120.61388008300699,养育巷1号出口,政府机构及社会团体,姑苏区,沧浪街道,26.836103,28.983753,159103.0
86,31.305130921263704,120.6128930635799,养育巷站3号出口,政府机构及社会团体,姑苏区,桃花坞街道,56.009567,23.301422,148049.0
87,31.306070077864536,120.62183512059494,乐桥站1号出口,科教文化服务,姑苏区,沧浪街道,38.454147,5.985354,127652.0
88,31.307097499078502,120.62712708682648,言桥,科教文化服务,姑苏区,双塔街道,25.324326,34.51179,135841.0
89,31.307494723763824,120.62944806534288,临顿路站1号出口,科教文化服务,姑苏区,双塔街道,9.806819,5.7978625,137171.0
90,31.308944316696554,120.63551501345462,凯莱酒店,科教文化服务,姑苏区,双塔街道,23.454588,43.69675,100326.0
91,31.309934576194767,120.63873400186708,相门站3号出口,商务住宅,姑苏区,平江街道,35.244286,16.628677,138091.0
92,31.309544580353798,120.63889500153256,相门站1号出口,商务住宅,姑苏区,双塔街道,32.709507,20.167542,126823.0
93,31.311816777788106,120.64971910484225,东环路站1号出口,科教文化服务,姑苏区,葑门街道,13.403036,44.736835,87684.0
94,31.317430905790843,120.64369302034684,新湘苑社区,科教文化服务,姑苏区,娄门街道,36.40515,-1.2804085,79174.0
95,31.320834901465783,120.64161198923769,莫邪路日规路口,风景名胜,姑苏区,娄门街道,12.287337,9.722425,75239.0
96,31.31246996056149,120.59956964946826,石路站1号出口,科教文化服务,姑苏区,石路街道,22.513988,52.35044,135576.0
97,31.312114935504503,120.59982665876079,石路站2号出口,科教文化服务,姑苏区,石路街道,34.359825,21.180962,144761.0
98,31.309598870074943,120.60052369958258,石路站3号出口,科教文化服务,姑苏区,石路街道,23.523897,32.2567,124175.0
99,31.34397932559245,120.61326908257385,平泷路东站1,餐饮服务,姑苏区,城北街道,33.946293,17.941025,214204.0
100,31.34394732706261,120.61283908004965,平泷路东站2,政府机构及社会团体,姑苏区,城北街道,45.255337,13.81082,77084.0
101,31.33764927130541,120.61451001730005,平河路,商务住宅,姑苏区,苏锦街道,34.201645,22.713964,146207.0
102,31.331609233595987,120.61111992965454,火北广场东侧,交通设施服务,姑苏区,苏锦街道,-19.084473,39.77744,61676.0
103,31.30439380696383,120.60125178290586,广济南路站3号出,餐饮服务,姑苏区,石路街道,27.498537,28.535349,262559.0
104,31.337572453836714,120.62002602174543,锦荷苑,商务住宅,姑苏区,苏锦街道,-8.01289,12.95526,54964.0
105,31.291881371888355,120.59658886268952,劳动路站1,商务住宅,姑苏区,胥江街道,17.401558,30.389687,90968.0
106,31.285426208504425,120.59837403368454,胥江路站1号出口,政府机构及社会团体,姑苏区,吴门桥街道,35.261295,23.682117,148028.0
107,31.27842109918997,120.599629191729,桐泾公园站2号出,政府机构及社会团体,姑苏区,友新街道,14.934752,36.038597,131756.0
108,31.279058034714474,120.6001971976362,桐泾公园站4号出,政府机构及社会团体,姑苏区,吴门桥街道,13.143997,23.467447,125518.0
109,31.27157029597804,120.60845946900551,长吴路站3号站,科教文化服务,姑苏区,友新街道,22.629448,26.74383,185899.0
110,31.27118031028193,120.60830947051276,长吴路站1,科教文化服务,姑苏区,友新街道,27.776857,25.979538,233044.0
112,31.292527245454906,120.59773088222528,劳动路站2,商务住宅,姑苏区,胥江街道,-10.092027,16.84844,53142.0
113,31.320121674707273,120.60255669654798,市立医院站北区,科教文化服务,姑苏区,虎丘街道,42.973236,37.02196,162926.0
114,31.31541242257645,120.57392781384048,闻钟苑,商务住宅,姑苏区,留园街道,0.6167384,31.894375,69998.0
115,31.315935839911585,120.5813925678405,农业职业技术学院,商务住宅,姑苏区,留园街道,33.323105,21.467245,158583.0
116,31.265840507150163,120.59566022952309,和茂苑,商务住宅,姑苏区,友新街道,4.371603,10.845843,80639.0
117,31.26851873969483,120.6035154109816,友新路杨素路口,科教文化服务,姑苏区,友新街道,0.8691536,4.627364,65404.0
118,31.27111687169832,120.60205635383177,福星新城,科教文化服务,姑苏区,友新街道,11.660428,36.560425,116974.0
119,31.27339072942675,120.60334635969495,亿象城（家乐福）,科教文化服务,姑苏区,友新街道,35.982807,4.7842913,121392.0
120,31.27755920722452,120.60894041245865,南环西路长吴路口,商务住宅,姑苏区,友新街道,12.182297,30.241787,91375.0
121,31.29244036538073,120.65489995052219,杨枝新村,科教文化服务,姑苏区,葑门街道,11.83714,26.975538,101595.0
122,31.28982355306816,120.65090985026691,里河新村,商务住宅,姑苏区,葑门街道,11.404909,25.277317,86750.0
123,31.29310387131496,120.61879425754269,东大街小学,商务住宅,姑苏区,沧浪街道,19.84738,32.513794,99480.0
124,31.31341054786988,120.57507976255488,品园西,商务住宅,姑苏区,留园街道,5.895284,1.6621796,45024.0
125,31.32183371804389,120.58896648685202,五彩园,商务住宅,姑苏区,留园街道,35.135048,-4.0343504,74011.0
126,31.292773007329263,120.61054620752012,泰南路盘胥路口,商务住宅,姑苏区,胥江街道,19.290459,0.46302465,68294.0
127,31.27656865911529,120.5941360651408,解放路公交首末站,商务住宅,姑苏区,友新街道,-5.104695,19.81883,33746.0
128,31.290784921008377,120.59049874435448,三香福郡,商务住宅,姑苏区,友新街道,-1.940152,12.480309,94517.0
129,31.27821897754375,120.58986493696466,西环新村,商务住宅,姑苏区,友新街道,-4.1060653,14.699912,47552.0
130,31.265048571090322,120.59488521398269,宝带西路范成大路,商务住宅,姑苏区,友新街道,15.051289,4.9077015,65799.0
131,31.291423872979703,120.61880627556324,新市路建设银行,商务住宅,姑苏区,沧浪街道,4.0069194,34.09481,82959.0
132,31.32563491605505,120.59996064686806,清塘新村,政府机构及社会团体,姑苏区,虎丘街道,-0.3914786,24.887753,59903.0
133,31.291023863304247,120.61426227785395,西大街,科教文化服务,姑苏区,胥江街道,23.634851,41.657852,76204.0
134,31.330101480468176,120.56608820142887,春馨园小区,公司企业,姑苏区,白洋湾街道,-33.347305,17.548914,46403.0
135,31.321379183978237,120.60953186892188,桃花小筑,政府机构及社会团体,姑苏区,桃花坞街道,-10.629041,11.142341,38626.0
136,31.334666263777642,120.61123195608862,平川路锦芳街口,商务住宅,姑苏区,苏锦街道,5.335897,8.438497,60543.0
138,31.33458292253963,120.6265589668119,鼎尚花园,商务住宅,姑苏区,娄门街道,-2.1857288,45.021988,82508.0
139,31.330673846733518,120.60091570786986,新天地家园,住宿服务,姑苏区,苏锦街道,23.49032,14.00014,108773.0
140,31.34432033252803,120.59496880469592,美地花园,科教文化服务,姑苏区,城北街道,3.4233031,-0.5329014,60169.0
141,31.318057766863927,120.58874647741415,仁安街,科教文化服务,姑苏区,留园街道,27.94319,13.113529,109702.0
142,31.32178318537855,120.57251690013996,嘉业阳光城,商务住宅,姑苏区,留园街道,-32.934654,17.559029,72776.0
143,31.260845420798226,120.60803850664469,万佳花苑,科教文化服务,姑苏区,友新街道,31.127811,-2.2696533,87727.0
144,31.30789679024277,120.59043651910746,桐泾路金门路口,商务住宅,姑苏区,金阊街道,5.9569364,8.257543,68054.0
145,31.31276281447997,120.58902748417792,来客茂购物中心北,商务住宅,姑苏区,金阊街道,32.57136,22.113127,215570.0
146,31.291211090193805,120.58014970397629,奥林花园,商务住宅,姑苏区,友新街道,3.1951592,16.232868,123454.0
147,31.28277546807621,120.65238874047719,南环桥,商务住宅,姑苏区,葑门街道,16.397648,-3.750159,93626.0
148,31.2788883673112,120.63813181284179,汽车南站,住宿服务,姑苏区,吴门桥街道,20.085676,23.851587,113265.0
149,31.269278534074136,120.59544419395279,沧浪新城汇邻中心,科教文化服务,姑苏区,友新街道,28.96102,12.972652,120070.0
150,31.293914630446462,120.6440228892418,桂花公园,商务住宅,姑苏区,沧浪街道,29.171473,37.269363,107863.0
151,31.32554591959881,120.64027595226356,娄江新村,政府机构及社会团体,姑苏区,娄门街道,24.10237,6.362863,56022.0
152,31.333026963536412,120.63908788680159,挹秀新村,商务住宅,姑苏区,娄门街道,23.013548,-10.991171,75986.0
153,31.32849769078177,120.62507098810741,平齐花园,住宿服务,姑苏区,观前街道,12.157285,8.118394,46614.0
154,31.329014963793767,120.64015292472641,糖坊湾,商务住宅,姑苏区,娄门街道,11.678364,-5.5300303,27087.0
155,31.29786071124569,120.5926896693203,桐泾路三香路路口,科教文化服务,姑苏区,胥江街道,14.952367,32.896915,121394.0
156,31.26476311293272,120.59983134776957,世贸运河城东,餐饮服务,姑苏区,友新街道,32.04969,21.013397,192541.0
400,31.371961407666248,120.54523281374613,中海御景湾,科教文化服务,姑苏区,白洋湾街道,12.655242,8.85842,58080.0
401,31.365095240896697,120.54704694309359,金亿城,科教文化服务,姑苏区,白洋湾街道,-8.72199,24.436516,54082.0
402,31.371041455856446,120.5446588066623,宝林苑西,科教文化服务,姑苏区,白洋湾街道,-8.776652,25.171686,71038.0
403,31.36619960045959,120.54311381939269,藕巷新村,科教文化服务,姑苏区,白洋湾街道,-2.1165128,42.840893,75137.0
404,31.35960086209205,120.5540591602928,南山金城,科教文化服务,姑苏区,白洋湾街道,-4.7689505,-6.9547234,31839.0
405,31.358617029286602,120.54992310896787,南山金城商业街,科教文化服务,姑苏区,白洋湾街道,-4.0194144,13.148882,44393.0
406,31.360615220550972,120.54725601611143,富强新村,科教文化服务,姑苏区,白洋湾街道,-3.1712286,-7.979451,46972.0
407,31.35899076769021,120.5416788890472,金筑家园,商务住宅,姑苏区,白洋湾街道,8.67296,1.3606875,44262.0
408,31.363107522524075,120.54392788685287,陆步桥公交首末站,科教文化服务,姑苏区,白洋湾街道,-3.4567552,39.477833,107222.0
409,31.34878584751472,120.55549731812513,物流服务大厦,商务住宅,姑苏区,白洋湾街道,-4.1320705,-8.620186,19713.0
410,31.34482503963155,120.56226429006828,五金机电城,购物服务,姑苏区,白洋湾街道,-6.6644163,10.213543,20090.0
411,31.34319415417859,120.56392226113563,小商品城和泰家园,购物服务,姑苏区,白洋湾街道,-6.4367766,10.47244,27322.0
412,31.343199989847804,120.55167037481488,虎泉路白洋湾停用,商务住宅,姑苏区,白洋湾街道,-38.112286,-21.648027,6769.0
413,31.365068029820648,120.55014701762803,白洋街道服务中心,科教文化服务,姑苏区,白洋湾街道,-32.56683,-0.035341762,10046.0
414,31.3624752279886,120.54716998471494,白洋湾社区,科教文化服务,姑苏区,白洋湾街道,-29.275345,-12.2239065,33828.0
415,31.34110623599037,120.56482624366,白洋湾花园,地名地址信息,姑苏区,白洋湾街道,-7.3724985,-24.671715,20766.0
416,31.34586018418408,120.59725587130735,平海路公交首末站,科教文化服务,姑苏区,城北街道,-33.726475,-7.130347,34719.0
418,31.345317456685663,120.61867408798443,和润家园,政府机构及社会团体,姑苏区,城北街道,1.8813639,12.11775,28907.0
419,31.33461577141561,120.60206177860631,平江医院,医疗保健服务,姑苏区,苏锦街道,4.4644837,-4.951842,44916.0
420,31.33957626748517,120.59576973293757,江星商业广场,科教文化服务,姑苏区,城北街道,7.6975536,22.73966,65979.0
421,31.339641031535873,120.59898879087099,御家商业宾馆停用,科教文化服务,姑苏区,城北街道,-41.517536,-6.549041,18294.0
422,31.34087064138835,120.6043579187722,仲雅苑,科教文化服务,姑苏区,城北街道,7.93824,-0.06296296,46561.0
423,31.338594591661987,120.6048858935637,绿馨园,商务住宅,姑苏区,苏锦街道,4.4436216,9.007483,44012.0
424,31.340163565792874,120.62135802682371,中梁天御,商务住宅,姑苏区,苏锦街道,-23.328035,4.866454,65289.0
425,31.338269356753635,120.60930896767393,橘郡花园,商务住宅,姑苏区,苏锦街道,29.88091,0.33810344,50819.0
426,31.33737394989344,120.59993277304196,橘子国花园西,科教文化服务,姑苏区,苏锦街道,3.2769,0.17809702,34516.0
427,31.34208432348484,120.61521806531694,旺宅路万达广场,餐饮服务,姑苏区,城北街道,2.671802,-13.927346,117995.0
428,31.33088121390768,120.63017094492369,东汇公园,商务住宅,姑苏区,娄门街道,-2.7832358,-5.6127815,35034.0
429,31.329948426765107,120.5934595686477,虎阜花园,地名地址信息,姑苏区,虎丘街道,26.935581,7.475196,62177.0
430,31.327755152633227,120.61310394075524,火车站南广场,交通设施服务,姑苏区,苏锦街道,26.081413,-13.852018,68661.0
431,31.344434643626904,120.60466098543476,第一人民医院分院,科教文化服务,姑苏区,城北街道,-3.4879665,11.209179,46631.0
432,31.36568231930481,120.54611291020343,藕巷新村东门,科教文化服务,姑苏区,白洋湾街道,-23.62821,-16.668192,10124.0
433,31.370890482797538,120.54435779979929,中海御景湾东门,科教文化服务,姑苏区,白洋湾街道,-12.754712,-10.095799,21637.0
434,31.26598172724668,120.60378743308256,沧浪规划馆,科教文化服务,姑苏区,友新街道,-20.455223,-5.6748047,27261.0
435,31.3043336287502,120.62892008395605,苏州公园东门,政府机构及社会团体,姑苏区,双塔街道,-5.842829,-3.264099,32547.0
436,31.300859919898105,120.61237511276235,学士林,科教文化服务,姑苏区,胥江街道,-4.3896914,-3.2504315,22900.0
437,31.32225978972318,120.58387953618308,玖园小区,政府机构及社会团体,姑苏区,留园街道,-1.4849418,-0.70539546,35292.0
438,31.278866615738266,120.5946030419225,港务路金帝名园,商务住宅,姑苏区,友新街道,-0.6069216,-11.075142,23117.0
439,31.297775924585466,120.58976162634069,彩香二村,科教文化服务,姑苏区,金阊街道,-1.0358056,-6.156465,77418.0
440,31.29887404942399,120.59921781088207,供电局,商务住宅,姑苏区,石路街道,-0.12580423,-4.2222724,62910.0
441,31.28856451546847,120.60457315044869,东方苑小区北门,商务住宅,姑苏区,胥江街道,5.865332,1.7176226,63009.0
442,31.30342420116498,120.59759769672992,干将路烽火路口,商务住宅,姑苏区,石路街道,16.188046,0.97384423,62603.0
443,31.28025662852848,120.60393427808985,中级人民法院,政府机构及社会团体,姑苏区,吴门桥街道,-6.5877714,-0.97779894,27044.0
447,31.30020695759055,120.61143410606249,姑胥桥东堍,商务住宅,姑苏区,胥江街道,-17.357784,-27.279655,30300.0
449,31.301688019085717,120.58043262043272,欣嘉园,商务住宅,姑苏区,金阊街道,-5.361164,-4.152459,30850.0
450,31.287307137938534,120.58605374302427,万科金品家园,政府机构及社会团体,姑苏区,友新街道,-7.8416433,-10.222436,36929.0
451,31.296600073198363,120.58057165258556,革命博物馆,医疗保健服务,姑苏区,金阊街道,0.098727666,-4.322595,45662.0
452,31.289545093127927,120.58010372003551,广大家园,商务住宅,姑苏区,友新街道,5.0487905,-8.614898,59151.0
453,31.299990857350586,120.617192176118,文化市场,科教文化服务,姑苏区,沧浪街道,-6.485064,-1.2362846,48031.0
454,31.358974864395524,120.5407948636692,和美家园北门,商务住宅,姑苏区,白洋湾街道,-6.8660874,0.5790414,33147.0
455,31.28222812690074,120.59923711658476,桐泾公园,政府机构及社会团体,姑苏区,吴门桥街道,-8.416129,-24.16751,36231.0
456,31.26049401306933,120.6009233871653,世茂瀚和苑,科教文化服务,姑苏区,友新街道,-20.994978,-5.4590406,9807.0
457,31.26884786862789,120.59105408369922,农产品批发市场,科教文化服务,姑苏区,友新街道,10.65182,-22.823107,47829.0
458,31.263970574443945,120.59479421807356,尚运苑,商务住宅,姑苏区,友新街道,-0.64841163,-8.176018,29971.0
459,31.26836243583672,120.596496231914,中医院西,科教文化服务,姑苏区,友新街道,28.801264,-9.005669,74179.0
460,31.298502526262002,120.6284801116093,规划局,科教文化服务,姑苏区,双塔街道,6.211251,-5.6001434,77134.0
461,31.35565837124621,120.54563705891256,星光耀花园,商务住宅,姑苏区,白洋湾街道,-1.0576296,-6.5719323,50655.0
462,31.34107994456204,120.55936936614978,虎池苑,商务住宅,姑苏区,白洋湾街道,-25.39882,1.8407255,28725.0
463,31.347793244212305,120.56550420658353,金阊新城礼品城,购物服务,姑苏区,白洋湾街道,-7.0908847,0.6021823,14251.0
2083,31.27048204062329,120.61452648723193,盘蠡苑,商务住宅,姑苏区,[],8.111167,16.133831,42797.0
4001,31.295039465727328,120.62805612957213,乌鹊桥路100医院,医疗保健服务,姑苏区,双塔街道,7.0723042,54.52344,135423.0
4002,31.285565975908483,120.62106630431812,苏纶里原苏纶古建,商务住宅,姑苏区,吴门桥街道,-16.849237,-14.101609,27190.0
4003,31.282249135352025,120.63532192013248,南环新村,商务住宅,姑苏区,吴门桥街道,36.98525,9.220097,121461.0
4004,31.289322897557827,120.61949229207023,盘门三景,商务住宅,姑苏区,沧浪街道,-1.1745703,15.72953,64997.0
4005,31.279384984777003,120.6127364212363,城市恬园,医疗保健服务,姑苏区,吴门桥街道,13.481423,5.922393,102045.0
4006,31.300892991134816,120.62115916927802,苏州市立医院,科教文化服务,姑苏区,沧浪街道,7.07359,54.535744,138040.0
4007,31.29662608599079,120.60919311826349,苏州市规划展示馆,商务住宅,姑苏区,胥江街道,5.1057987,6.489547,60976.0
4008,31.30546691359196,120.6181261187132,苏州市国税局,商务住宅,姑苏区,沧浪街道,22.900478,42.944035,108030.0
4009,31.297962883624848,120.61327916802595,吉庆街,科教文化服务,姑苏区,沧浪街道,10.662126,33.73859,59273.0
4010,31.27877292676717,120.61691141200829,姑苏区检察院,商务住宅,姑苏区,吴门桥街道,15.150384,20.964558,75009.0
4011,31.274633863067645,120.59152902611807,梅亭苑,商务住宅,姑苏区,友新街道,-3.1168072,23.287195,92951.0
4012,31.276685665625482,120.60378532773242,姜昆艺术收藏馆,政府机构及社会团体,姑苏区,友新街道,-3.93667,30.42281,59520.0
4014,31.27607117945293,120.59895820847844,交通运政指挥中心,政府机构及社会团体,姑苏区,友新街道,9.002897,10.631482,50308.0
4015,31.28555290020073,120.6138133497958,吴门印象,医疗保健服务,姑苏区,吴门桥街道,11.767812,23.764889,113656.0
4016,31.300477656781105,120.64995000615959,葑门路工商银行,科教文化服务,姑苏区,葑门街道,21.10098,25.244696,122464.0
4017,31.304314737289967,120.64446199331499,相门后庄,科教文化服务,姑苏区,葑门街道,16.485289,14.858093,106139.0
4018,31.297265903900794,120.61961121015871,沧浪街道办事处,商务住宅,姑苏区,沧浪街道,17.402685,52.900627,142385.0
4019,31.28698495592445,120.63345999936027,领秀江南,商务住宅,姑苏区,吴门桥街道,8.8409395,11.458918,51879.0
4020,31.285731162296727,120.58462575574131,云庭家园,商务住宅,姑苏区,友新街道,18.856531,12.38057,68841.0
4023,31.27818628299168,120.63682984419529,湄长新村,住宿服务,姑苏区,吴门桥街道,14.812479,28.042519,99497.0
4024,31.30077208199331,120.58319158708505,苏州市市政府,政府机构及社会团体,姑苏区,金阊街道,-7.283102,-36.457043,17209.0
4025,31.282184946356484,120.63311698651368,南环新村西,商务住宅,姑苏区,吴门桥街道,-9.032145,-4.2861414,43849.0
4026,31.290244197805038,120.63629294995948,南园桥北堍,商务住宅,姑苏区,沧浪街道,-5.603182,-5.0884356,37818.0
4027,31.2875636285664,120.64565579784315,冬青路北,商务住宅,姑苏区,葑门街道,-19.654362,-39.36291,3183.0
4028,31.289766620754786,120.6484348324052,现代花园,餐饮服务,姑苏区,葑门街道,-3.5061626,-0.51498824,31581.0
4029,31.288617200694297,120.6249582140982,人民桥北堍,商务住宅,姑苏区,沧浪街道,-6.318268,-30.373217,10690.0
4030,31.28109831376639,120.63756984800379,南环汇邻中心,商务住宅,姑苏区,吴门桥街道,3.2518759,14.811934,70368.0
4031,31.332580608755077,120.58963557583598,现代美墅,商务住宅,姑苏区,虎丘街道,-18.374144,0.5443763,26637.0
4032,31.288100594516372,120.64353381834052,青少年活动中心,商务住宅,姑苏区,葑门街道,-8.481968,-10.396829,18015.0
4036,31.295306228004407,120.60736509929023,胥江街道,商务住宅,姑苏区,胥江街道,-7.182811,-14.912974,14990.0
4037,31.30160011766603,120.62318915315564,饮马桥工商银行,科教文化服务,姑苏区,双塔街道,1.1819636,-9.572793,51906.0
4038,31.311964123416985,120.62127207160431,因果巷口中国银行,医疗保健服务,姑苏区,观前街道,-7.7163033,49.86415,78696.0
4039,31.31537914368654,120.62069804549259,接驾桥的士大厦,科教文化服务,姑苏区,观前街道,-12.628497,-25.325457,28572.0
4040,31.316998159313933,120.62050703459795,白塔西路人民路口,住宿服务,姑苏区,观前街道,-0.99209684,-33.07434,27490.0
4041,31.32066918384643,120.61981501286712,西北街人民路口,科教文化服务,姑苏区,观前街道,5.489969,-19.662779,69369.0
4042,31.32688516353472,120.6165759792142,平门桥南堍,商务住宅,姑苏区,观前街道,-26.923185,-0.030867167,30521.0
4043,31.315406128862072,120.62041104423484,苏城饭店,科教文化服务,姑苏区,观前街道,5.357895,-10.951269,42349.0
4044,31.311844106751586,120.62100707195707,东吴商行,住宿服务,姑苏区,观前街道,1.7900771,-8.768247,59631.0
4045,31.308813105106807,120.62171709733805,大洋百货国美电器,科教文化服务,姑苏区,观前街道,-7.437187,49.28586,84826.0
4046,31.304193102932697,120.62258113481,姑苏分局南,科教文化服务,姑苏区,沧浪街道,1.3587469,-9.214517,63532.0
4047,31.299006123537275,120.62357217054758,三元坊站4号口,科教文化服务,姑苏区,双塔街道,0.8725779,-22.301495,59507.0
4048,31.299006107738233,120.62334117259705,三元坊站3号口,科教文化服务,姑苏区,沧浪街道,1.1018218,-38.495945,79453.0
4049,31.29280414911188,120.62429320437185,文庙古玩市场,商务住宅,姑苏区,沧浪街道,-8.624522,50.33589,39288.0
4050,31.29001917679237,120.62467321317922,泰华商城西楼,商务住宅,姑苏区,沧浪街道,-19.579262,7.5217466,36455.0
4051,31.29043119031081,120.62486120756915,泰华商城东楼,商务住宅,姑苏区,沧浪街道,3.4147933,-7.1032047,29859.0
4052,31.28539824177157,120.62532721783369,人民桥南站西,科教文化服务,姑苏区,吴门桥街道,-19.621376,7.892464,26053.0
4053,31.284944278906995,120.62577220798323,人民桥南站东,科教文化服务,姑苏区,吴门桥街道,0.7023411,-5.0091286,72578.0
4054,31.28117732970295,120.62605220734407,南门小商品市场西,科教文化服务,姑苏区,吴门桥街道,-5.9716225,-10.608535,39408.0
4055,31.28172333853412,120.62622420164247,南门小商品市场东,科教文化服务,姑苏区,吴门桥街道,-2.5390809,-3.687711,39318.0
4056,31.29712513717657,120.62392818079228,三元坊站2号口,科教文化服务,姑苏区,双塔街道,-0.365096,-10.214248,27718.0
4057,31.30695710682398,120.62213811260125,乐桥站8号口,科教文化服务,姑苏区,观前街道,0.9570791,-40.129555,19282.0
4058,31.306709118516558,120.62237311428392,乐桥站7号口,科教文化服务,姑苏区,观前街道,-7.1616783,-38.930206,26210.0
4060,31.321058166740965,120.61932000875395,北寺塔地铁站,科教文化服务,姑苏区,观前街道,-8.108049,-45.750923,39344.0
4061,31.30426049497937,120.60430187211477,阊胥路公交站东,科教文化服务,姑苏区,石路街道,-3.2705424,-41.35272,24646.0
4062,31.29983636887591,120.60567597888512,疾控中心,政府机构及社会团体,姑苏区,胥江街道,-1.7559727,-42.749847,31224.0
4063,31.300404914000172,120.63237104979008,凤凰农贸市场,餐饮服务,姑苏区,双塔街道,-6.783211,-43.916573,30989.0
4064,31.307112957325874,120.631915044303,鹅颈湾,科教文化服务,姑苏区,双塔街道,-10.350058,-41.27406,33870.0
4065,31.295030891134342,120.63259104331749,木杏新村东,科教文化服务,姑苏区,双塔街道,-7.6124015,-40.859894,25850.0
4066,31.298336548681878,120.59446569811584,彩香一村南,科教文化服务,姑苏区,石路街道,-3.1009982,-41.503407,18571.0
4067,31.29124964281795,120.6470218512153,觅渡桥北公交站,餐饮服务,姑苏区,葑门街道,-8.569469,-41.49868,19314.0
4068,31.282281106471864,120.60985236116665,田家炳初中,科教文化服务,姑苏区,吴门桥街道,-2.876849,-42.30785,21246.0
4069,31.26451336034721,120.59724928105369,世茂广场,商务住宅,姑苏区,友新街道,-0.9327166,-36.402546,36952.0
4070,31.261886500078298,120.60678749388263,世茂瀚河苑西,科教文化服务,姑苏区,友新街道,-1.0546951,-45.729618,24448.0
4071,31.265576515967087,120.60623847804656,四季晶华,科教文化服务,姑苏区,友新街道,-0.71846265,-45.689346,25974.0
4072,31.29248151749561,120.62871912245441,养蚕里,政府机构及社会团体,姑苏区,沧浪街道,-8.650432,-39.706562,33986.0
4073,31.307230296523013,120.62474710162977,苏州市照明管理处,科教文化服务,姑苏区,观前街道,-4.7683535,-38.2932,30629.0
4074,31.30513238103373,120.6055168938822,苏州市邮政局,商务住宅,姑苏区,石路街道,-4.0925336,-39.427235,29036.0
4075,31.30931715374196,120.60853692135862,慈济,住宿服务,姑苏区,桃花坞街道,-8.877803,-49.46386,13251.0
4076,31.319213106478013,120.61086590262319,桃花坞大街,风景名胜,姑苏区,桃花坞街道,-2.787583,-51.99409,13174.0
4077,31.30464878634455,120.5909795546449,桐泾北路中国银行,政府机构及社会团体,姑苏区,金阊街道,-0.06347998,-43.03706,16033.0
4078,31.290172584346525,120.59458384172844,海胥澜庭东,商务住宅,姑苏区,友新街道,-10.142327,-35.655876,7029.0
4079,31.28750502230284,120.58902677436384,海胥澜庭西,商务住宅,姑苏区,友新街道,-10.772266,-41.70667,7672.0
4080,31.30217086855578,120.61711014955368,丰乐宫,科教文化服务,姑苏区,沧浪街道,-1.8773483,-41.30938,24259.0
4081,31.28074638883052,120.63866981629795,新联大厦,商务住宅,姑苏区,葑门街道,-11.482591,-49.58322,20655.0
4082,31.292450230978915,120.62538618801355,南门地铁站3号口,商务住宅,姑苏区,双塔街道,0.17954525,-46.00683,58493.0
4083,31.29337986277925,120.61406024297806,姑苏少年宫,商务住宅,姑苏区,沧浪街道,-9.51855,-46.35432,11562.0
4084,31.28207146371529,120.65245572902693,南环桥公交站,商务住宅,姑苏区,葑门街道,-5.251928,-51.51814,15219.0
4085,31.285869596081127,120.64907277099505,冠南苑,商务住宅,姑苏区,葑门街道,-3.002732,-44.1322,25543.0
4087,31.302382949842702,120.63251404660456,凤凰街十梓街路口,商务住宅,姑苏区,双塔街道,0.8158686,-46.714413,81887.0
4088,31.32397315914129,120.61796299178629,平门公交站,科教文化服务,姑苏区,观前街道,-7.927797,-48.26282,10732.0
4200,31.310249926764307,120.61510303981972,景德路工商银行,科教文化服务,姑苏区,桃花坞街道,-2.6929832,15.165815,73790.0
4201,31.31171494225789,120.615026025063,东百花巷,科教文化服务,姑苏区,桃花坞街道,11.31638,9.660796,68114.0
4202,31.308041570557023,120.60350980016553,金阊文化教育大厦,科教文化服务,姑苏区,石路街道,-16.568281,12.09181,71894.0
4203,31.323092261319484,120.60832484126496,石幢新村,政府机构及社会团体,姑苏区,桃花坞街道,-4.676048,12.838371,34080.0
4204,31.315188382900576,120.6057777988394,阊门城墙,风景名胜,姑苏区,桃花坞街道,36.821453,38.212437,162635.0
4205,31.331261492410807,120.578825724925,虎丘风景区南,风景名胜,姑苏区,虎丘街道,44.189056,38.13525,60025.0
4206,31.32346570486721,120.58094260742979,虎阜街道办事处,商务住宅,姑苏区,留园街道,-0.15972102,-0.17926024,68895.0
4207,31.314770539591308,120.59312950772943,留园旅客中心,风景名胜,姑苏区,留园街道,15.451037,-23.268126,36574.0
4208,31.326199034746285,120.64510199409916,平江设计产业园,商务住宅,姑苏区,娄门街道,2.2362547,17.450981,62362.0
4210,31.319848000332087,120.63003300063356,狮子林,住宿服务,姑苏区,平江街道,-12.788709,32.05212,46659.0
4211,31.323481294223622,120.63235096992243,拙政园,风景名胜,姑苏区,平江街道,-12.440707,31.347921,52411.0
4213,31.31081078870613,120.58995049616458,来客茂南,商务住宅,姑苏区,金阊街道,20.294079,11.916088,87174.0
4214,31.311386781597925,120.64240701183843,相门桥东堍北侧,科教文化服务,姑苏区,娄门街道,3.9866755,-11.284399,56867.0
4215,31.324559882387234,120.63981295683969,娄门桥西,政府机构及社会团体,姑苏区,平江街道,-7.86822,-1.9252408,57497.0
4216,31.32369140490604,120.6334979638461,市六中,商务住宅,姑苏区,平江街道,-8.3036,-12.707885,27264.0
4217,31.327515294159106,120.61976299711405,平门府,商务住宅,姑苏区,观前街道,-13.540748,-11.074962,17135.0
4218,31.326413161391077,120.61164691397332,平门城墙,交通设施服务,姑苏区,桃花坞街道,-7.7453213,-24.093252,17615.0
4219,31.308159901088786,120.58826250695508,前文家巷13#小区,商务住宅,姑苏区,金阊街道,-1.6930342,-16.52691,55861.0
4220,31.307087464992804,120.57269383896127,三元三村北门,商务住宅,姑苏区,金阊街道,-1.0561846,-1.7411971,68228.0
4221,31.30756256791207,120.57404778959108,新元新村,商务住宅,姑苏区,金阊街道,-7.881709,-12.988201,35062.0
4222,31.32421263616368,120.60315871739591,广济公寓,医疗保健服务,姑苏区,虎丘街道,-20.188581,2.5142984,28719.0
4223,31.323176743317042,120.56775611104784,嘉业阳光城北门,地名地址信息,姑苏区,留园街道,-2.337922,-16.652792,18566.0
4224,31.325823119891748,120.59761359794878,长盛花园北门,地名地址信息,姑苏区,虎丘街道,-4.23738,-15.909386,24002.0
4225,31.339104939096945,120.62611697079953,梅林新苑,商务住宅,姑苏区,娄门街道,5.5805917,-7.4960628,42113.0
4226,31.338950211008722,120.629007931586,梅花二村,商务住宅,姑苏区,娄门街道,-7.844419,11.9478855,86338.0
4227,31.33496503217341,120.62766195509792,梅巷花园,商务住宅,姑苏区,娄门街道,11.9119,0.48328117,69889.0
4228,31.333647378337478,120.61958800612163,尚城花园西区,商务住宅,姑苏区,苏锦街道,9.106825,30.821663,45010.0
4229,31.3453544537792,120.59292079611551,美地花园北门,科教文化服务,姑苏区,城北街道,-8.783365,-21.822691,21540.0
4230,31.333954487357047,120.62134200326444,尚城花园,商务住宅,姑苏区,苏锦街道,22.504446,-16.98134,42915.0
4231,31.34519516487195,120.59748686285809,仲雅苑北区,政府机构及社会团体,姑苏区,城北街道,-7.0846105,-10.089309,78279.0
4232,31.33547960018452,120.63359589197313,嘉裕花园北门,商务住宅,姑苏区,娄门街道,-3.2901323,-1.9499717,30926.0
4233,31.312127931064392,120.58298753415363,金之枫花园北门,商务住宅,姑苏区,金阊街道,4.643268,-10.731864,39650.0
4234,31.327311788534626,120.62638598477035,新档案馆,风景名胜,姑苏区,平江街道,-0.32359448,-22.390917,26163.0
4235,31.313272155046484,120.6214750622452,消防医院,商务住宅,姑苏区,观前街道,-12.053269,-44.68027,14297.0
4237,31.307908947652077,120.58077558720957,金门路小商品市场,商务住宅,姑苏区,金阊街道,-5.2809258,-39.922707,46426.0
4238,31.324500407195806,120.62240400539312,苏州庭园北门,商务住宅,姑苏区,观前街道,-14.269214,-43.821926,5221.0
4239,31.336757574010434,120.60496486895676,苏锦地铁站4号口,政府机构及社会团体,姑苏区,苏锦街道,-2.2183561,-46.611725,47930.0
4240,31.34404975405578,120.60299494735085,平泷路西3号口,科教文化服务,姑苏区,城北街道,-4.104525,-44.05031,18112.0
4241,31.346450494901433,120.6074900666584,附一院平江院区,政府机构及社会团体,姑苏区,城北街道,-10.737093,-46.793873,11966.0
4242,31.3352912452904,120.614595998016,人民路平川路口,政府机构及社会团体,姑苏区,苏锦街道,-5.983399,-40.402695,14455.0
4243,31.3395943718921,120.6178520414222,总官堂路江乾路口,商务住宅,姑苏区,苏锦街道,1.7820754,-34.515976,35943.0
4244,31.33348422647241,120.61493398813784,人民路苏站路北,政府机构及社会团体,姑苏区,苏锦街道,-7.8617077,-40.898518,11511.0
4245,31.33404162134488,120.62317199435932,光华苑,商务住宅,姑苏区,苏锦街道,-16.509598,-46.00129,9185.0
4246,31.344771336024532,120.61452409640131,市民政局,政府机构及社会团体,姑苏区,城北街道,-4.6803317,-43.76923,19217.0
4247,31.34379843815373,120.61850707483096,金域平江,政府机构及社会团体,姑苏区,城北街道,-5.1761184,-49.656,13552.0
4248,31.305673643003548,120.65153609255194,庄先湾路,餐饮服务,姑苏区,葑门街道,-6.6360035,-43.579464,29017.0
4250,31.34230091952353,120.55887936432946,钱万里桥小商品城,商务住宅,姑苏区,白洋湾街道,-12.749943,-42.574078,7786.0
4251,31.34972455927436,120.56920011475546,圩北港桥公交站,地名地址信息,姑苏区,白洋湾街道,-20.25258,-48.011665,1559.0
4252,31.34735266009754,120.57025208691627,领秀金品花园南,地名地址信息,姑苏区,白洋湾街道,-14.62472,-44.105278,4217.0
4253,31.347324383322483,120.56717816769176,领秀金品花园西,购物服务,姑苏区,白洋湾街道,-5.9930043,-46.876762,6177.0
4254,31.36121786220469,120.54073582469792,金筑家园北,商务住宅,姑苏区,白洋湾街道,-7.275941,-33.637886,8956.0
4255,31.355566407522073,120.54526005059843,星光耀二期东,商务住宅,姑苏区,白洋湾街道,-5.1698003,-46.97212,16755.0
4256,31.36064701483852,120.5501990827865,南山金城北,科教文化服务,姑苏区,白洋湾街道,-11.060695,-44.26049,9929.0
4257,31.361385035524034,120.54986706466437,金阊新城幼儿园,科教文化服务,姑苏区,白洋湾街道,-23.792484,-48.40253,4481.0
4258,31.334049479471997,120.56684518034454,虎丘婚纱城,地名地址信息,姑苏区,虎丘街道,-2.9686382,-38.46965,11563.0
